"id","unique_name","latitude","longitude"
1,"Aalen (Stuttgarter Straße)",48.835296,10.092956
2,"Aéroport Bordeaux-Mérignac",44.830226,-0.700883
3,"Aéroport CDG ",49.0099,2.55931
4,"Aéroport de Berlin-Schönefeld ",52.389446,13.520345
5,"Aéroport de Dresden",51.1236038208008,13.7647371292114
6,"Aéroport de Genève",46.230121,6.109288
7,"Aéroport de Paris Beauvais-Tillé",49.462541,2.116935
8,"Aéroport de Prague (bus station)",50.1075325012207,14.2693090438843
9,"Aéroport de Tegel",52.55376,13.29231
10,"Aéroport Marco Polo",45.505432,12.338465
11,"Aéroport Marco Polo (Arrêt ATVO)",45.504946,12.339289
12,"Aéroport Saint-Exupéry",45.719094,5.079539
13,"Aéroport Schönefeld Terminal B",52.3892784118652,13.5198669433594
14,"Aéroport Schwechat",48.1196708679199,16.56298828125
15,"Aéroport T2",48.356118,11.789859
16,"Agen (Exit A62)",44.165376,0.606235
17,"Ahlbeck train station (Usedom)",53.9367,14.189175
18,"Ahrenshoop",54.379826,12.41892
19,"Aichach (Bäckerei Zametzer)",48.462035,11.134387
20,"Aire de covoiturage de Kernilien",48.5657041,-3.2060747
21,"Aire de Neustadt-Glewe",53.380065,11.62677
22,"Albertville (Central bus station)",45.672725,6.382503
23,"Albstadt-Ebingen (Bus station)",48.210265,9.030386
24,"aleja Wojska Polskiego",50.8184264,19.1397375
25,"Alessandria (Stazione FS)",44.908637,8.608076
26,"Alexanderplatz",52.523164,13.414503
27,"Allmannsdorf",47.682164,9.202497
28,"Alpe d'Huez",45.089737,6.075874
29,"Alpi Hotel Bolzano",46.4957237243652,11.3552179336548
30,"Alsfeld Pfefferhöhe",50.732885,9.241158
31,"Alsfeld train station",50.750707,9.265129
32,"Altenbüren",51.386086,8.506352
33,"Altlüdersdorf (B 96)",53.037369,13.192189
34,"Amberg (Maxplatz)",49.448144,11.85398
35,"Amstetten",48.121815,14.878154
36,"Ancona (Parking Archi)",43.610365,13.502943
37,"Anklam central bus station",53.855963,13.701285
38,"Antwerp (Berchem)",51.201255,4.435944
39,"Antwerp (Koningin Astridplein)",51.218454,4.420759
40,"Aosta (Autostazione)",45.735249,7.324412
41,"Apeldoorn train station",52.209763,5.96718
42,"Apen-Remels",53.263037,7.755616
43,"Aprilia (Via della stazione)",41.591916,12.639595
44,"Arad (Bus station)",46.190389,21.319017
45,"Arezzo (Via Rossellino)",43.466076,11.87476
46,"Arnsberg train station",51.405015,8.066429
47,"Arras",50.286279,2.779515
48,"Aschaffenburg (Goldbacher Straße)",49.977752,9.14962
49,"Aschersleben train station (Bahnhofstraße)",51.758059,11.462988
50,"Assisi (Piazza San Pietro)",43.072237,12.607273
51,"Asti (Piazza Medaglie D'Oro)",44.895892,8.208986
52,"Attnang-Puchheim",48.012714,13.720969
53,"Aubagne (Pole Exchange)",43.295766,5.565026
54,"Augsburg (Augsburg P+R Nord)",48.40172,10.877042
55,"Autostadt",52.431787,10.796351
56,"Autostazione di Udine",46.0571670532227,13.2428541183472
57,"Avenue Charles Floquet",43.47701,-1.552219
58,"Avenue de la Butte",43.295487,3.517419
59,"Avenue de la Méditerranée",43.318177,3.547052
60,"Avenue de Lattre de Tassigny",45.653846,0.167294
61,"Avenue du Campon",43.570898,7.014582
62,"Avenue du Maréchal Foch",47.246911,6.022417
63,"Avenue Georges Pompidou",47.896911,1.854277
64,"Avenue Henry Mouret",43.522984,5.436625
65,"Baabe (Rügen)",54.36314,13.705249
66,"Bad Arolsen",51.381521,8.998134
67,"Bad Bentheim train station",52.309682,7.158971
68,"Bad Doberan central bus station",54.108804,11.906367
69,"Bad Harzburg train station (Herzog-Julius-Straße)",51.88712,10.55641
70,"Bad Hersfeld train station",50.868557,9.715058
71,"Bad Oeynhausen central bus station",52.205381,8.79963
72,"Bad Saulgau (Festplatz)",48.020413,9.504685
73,"Bad Segeberg central bus station",53.934446,10.309166
74,"Bad Urach (bus station)",48.491022,9.397885
75,"Bad Zwesten (Brunnenstraße)",51.051932,9.175395
76,"Balingen (central bus station)",48.279977,8.850821
77,"Bamberg train station (Ludwigstraße)",49.899153,10.899918
78,"Bansin (Usedom)",53.963654,14.133878
79,"Bapaume (Parking of Mc Donald's)",50.105376,2.868175
80,"Barletta Scalo",41.308405,16.289453
81,"Baška",44.971836,14.755879
82,"Bastogne (Gare Sud)",49.999779,5.709641
83,"Bautzen (Schliebenstraße)",51.181686,14.415282
84,"Bayreuth central train station",49.951106,11.577908
85,"Bayreuth University (Mensa)",49.93035,11.586885
86,"Belfort",47.628642,6.856852
87,"Bellinzona (Via Henri Guisan)",46.195321,9.024233
88,"Benkovac bus station",44.031637,15.614122
89,"Bensersiel port",53.6779627,7.575006
90,"Bergamo central bus station",45.692019,9.675369
91,"Bergamo (Orio al Serio aeroporto)",45.665693,9.69807
92,"Bergen auf Rügen",54.41165,13.43144
93,"Bergen (Celle)",52.812018,9.95944
94,"Bergen op Zoom",51.490337,4.293472
95,"Bernburg (Saale)",51.79617,11.75048
96,"Bestwig train station",51.361478,8.399066
97,"Beverstedt",53.434962,8.818979
98,"Bibinje",44.067657,15.292669
99,"Bielefeld Brackwede train station",51.997974,8.499713
100,"Binz (Rügen)",54.405138,13.600996
101,"Biograd na Moru bus station",43.937832,15.443678
102,"Biograd na Moru (Motel)",43.945137,15.453843
103,"Bischofsgrün (Birnstengel)",50.056723,11.806513
104,"Blanes (Train station)",41.67361,2.76935
105,"Blankenburg central train station",51.795558,10.960514
106,"Bled bus station (Triglav National Park)",46.371189,14.106885
107,"Bocholt bus station",51.83407,6.620218
108,"Bochum central station (Wittener Straße)",51.47931,7.22485
109,"Bohumín train station",49.9015494,18.3594736
110,"Bologna Casalecchio",44.482294,11.273804
111,"Borca di Cadore (ss51)",46.43578,12.223588
112,"Borken train station",51.848884,6.864344
113,"Born a. Darss (Mitte)",54.387507,12.532119
114,"Bosiljevo",45.410931,15.289252
115,"Bottrop central train station",51.510187,6.936545
116,"Boulogne-sur-Mer",50.722921,1.59883
117,"Bourg-de-Péage (Carpooling Area)",45.019598,5.040188
118,"Brașov (Busbahnhof Bartolomeu)",45.659787,25.570016
119,"Bratislava Airport",48.170167,17.199278
120,"Braunau",48.257216,13.039016
121,"Breda Prinsenbeek",51.604088,4.723247
122,"Bregenz bus station",47.501994,9.739115
123,"Bremerhaven",53.536707,8.599862
124,"Bremervörde train station",53.483059,9.141474
125,"Brescia SAIA bus station",45.533056,10.214444
126,"Bressuire",46.849185,-0.475066
127,"Brilon bus station (Bahnhofstraße)",51.398429,8.574988
128,"Brittany Ferries",49.283652,-0.249723
129,"Brixen/Vahrn (Bressanone/Varna)",46.764069,11.642823
130,"Bršadin",45.362963,18.917465
131,"Bruck an der Mur (Bahnhof)",47.413444,15.278489
132,"Bruges (Station Brugge)",51.195846,3.215955
133,"Brunswick",52.251194,10.536665
134,"Budweis",48.972887,14.487246
135,"Bukarest (Busbahnhof Rahova)",44.398151,26.043201
136,"Bünde (Museum)",52.195309,8.582143
137,"Čakovec bus station",46.391354,16.434993
138,"Carparkplatz Sihlquai",47.3804359436035,8.53768348693848
139,"Car-Terminal Bern-Neufeld",46.9637641906738,7.43353843688965
140,"Cecina",43.313527,10.527882
141,"Celle central bus station",52.620029,10.063048
142,"Centre Aquatique",47.324084,-2.41623
143,"Centre Commercial Ouest",45.145845,1.482684
144,"Centre Hospitalier d'Angoulême",45.635457,0.124071
145,"centrum",49.6711807250977,18.6804523468018
146,"Černý Most",50.1088981628418,14.5774354934692
147,"Cesena (Piazzale dell'Accoglienza)",44.167916,12.280738
148,"Cesena (Piazzale Karl Marx)",44.144858,12.248472
149,"Chambre de Commerce",47.06382,2.36815
150,"Chamonix centre",45.922773,6.867269
151,"Champagne-Ardenne TGV",49.214754,3.994568
152,"Charolles-Est",46.440304,4.301564
153,"Châteauroux (central bus station)",46.809625,1.69861
154,"Châtellerault",46.833426,0.534398
155,"Chatellerault Nord Campanile Hotel",46.839013,0.545475
156,"Cholet (Central Bus Station )",47.066761,-0.872033
157,"CHU Brabois",48.650012,6.145242
158,"Chur station (Postautostation)",46.852702,9.527286
159,"Cityterminalen",59.33226,18.054582
160,"Civitanova Marche (Via Carducci)",43.301864,13.723552
161,"Colmar",48.073754,7.347802
162,"Combloux - Office du tourisme",45.894811,6645
163,"Cortina d'Ampezzo (Autostazione)",46.53906,12.137848
164,"Cottbus bus station",51.753765,14.331426
165,"Courmayeur (Piazzale Monte Bianco)",45.793203,6.971314
166,"Créavallée Nord",45.14312,0.698516
167,"Crikvenica (Busbahnhof)",45.172523,14.692295
168,"Częstochowa (bus station)",50.804987,19.118987
169,"Dahme (Strand hotel)",54.219894,11.088233
170,"Dannebrogsgade",55.403362,10.387038
171,"Dannenwalde (Kirche)",53.079999,13.185906
172,"Deggendorf bus station",48.838567,12.949842
173,"Delft Station (P+R Nijverheidsplein)",52.002671,4.357323
174,"Delmenhorst (Riedeweg)",53.03158,8.65375
175,"Den Bosch CS (Leonardo da Vinciplein / Magistratenlaan)",51.691273,5.292867
176,"Den Haag Centraal",52.080136,4.325237
177,"De Panne (Station)",51.077399,2.600981
178,"Dessau (bus station)",51.840199,12.236427
179,"Dětmarovice (nádraží)",49.900194,18.46608
180,"Deva (Busbahnhof)",45.883398,22.910147
181,"Deventer (Carpoolplaats A1)",52.235382,6.18187
182,"Dieppe (Central bus station)",49.921523,1.080578
183,"Dierhagen",54.290613,12.335222
184,"Digoin",46.484878,3.987987
185,"Dillenburg central bus station",50.733995,8.29429
186,"Dinard",48.630652,-2.064259
187,"Divadlo Alfa",49.7484169006348,13.4040365219116
188,"Döbeleplatz",47.658263,9.169107
189,"Dole (Parking next to the tollgate/péage)",47.064098,5.447277
190,"Domancy - La Pallud",45.904446,6.683823
191,"Dom Služieb",49.1166534423828,18.4453315734863
192,"Donji Miholjac bus station",45.759244,18.166099
193,"Dordrecht",51.80739,4.671228
194,"Dornbirn bus station",47.417015,9.738445
195,"Dornumersiel (Oll Deep bus station)",53.672651,7.472672
196,"Dorsten central bus station",51.658441,6.969044
197,"Drachten (Vallaat)",53.106497,6.126321
198,"Dresden Neustadt station (Hansastraße)",51.066377,13.739384
199,"Dubrovnik bus station",42.662809,18.083547
200,"Dugopolje",43.594875,16.572628
201,"Dülmen station",51.82877,7.293715
202,"Đurđevac bus station",46.030741,17.065348
203,"Eccellenze Campane",40.8488311767578,14.2829780578613
204,"Einsteinova",48.1322288513184,17.0988655090332
205,"Eisenach (Uferstraße)",50.978598,10.326067
206,"Elbeuf - Eglise Saint Jean",49.292069,1.003372
207,"Elmshorn (central bus station)",53.756204,9.658221
208,"Emden Außenhafen",53.344164,7.186713
209,"Emmerich train station",51.834025,6.254747
210,"Emsdetten (bus station)",52.176794,7.530695
211,"EmsPark Leer",53.259224,7.457246
212,"Engen (Grub/McDonald's)",47.856125,8.791945
213,"Enschede (central station)",52.221628,6.889476
214,"Enschede Kennispark / UT",52.238065,6.850244
215,"Erfurt central train station",50.973748,11.040066
216,"Esens (Bensersieler Straße)",53.65005,7.612721
217,"Esens (ZOB Herdetor)",53.646542,7.608696
218,"Estación del Norte",41.394968,2.183275
219,"Eugen-Bolz-Platz",48.479256,8.935371
220,"EuroAirport Basel Mulhouse Freiburg",47.600729,7.531714
221,"Europaboulevard",52.327501,4.890296
222,"Eurostop Statoil",56.6570129394531,12.908522605896
223,"Euskirchen bus station",50.658582,6.793834
224,"Făgăraș (Strada Mihai Viteazul)",45.844506,24.975853
225,"Fanti D'italia",44.416356,8.919053
226,"Ferrara (Piazzale train station)",44.842838,11.604776
227,"Ferrara (Uscita A13 Ferrara Nord)",44.866492,11.573698
228,"Fischen train station (Bahnhofstraße)",47.456691,10.270763
229,"Foggia (Ferroviaria train station)",41.465478,15.55447
230,"Foligno (Viale Mezzetti)",42.95325,12.708145
231,"Follonica",42.926257,10.755432
232,"Forlì (Autostazione)",44.223316,12.055246
233,"Frankenberg (Eder) train station",51.054012,8.789681
234,"Frankfurt Airport T1 - Busparkplatz P36",50.0527687072754,8.57747936248779
235,"Frankfurt Airport  T2",50.052538,8.588125
236,"Freiburg (im Breisgau) central station",47.995688,7.840469
237,"Fribourg (BCF Arena)",46.8176,7.157265
238,"Friedrichshafen central station",47.652758,9.473237
239,"Frosinone (Piazza Pertini)",41.629206,13.327383
240,"Fügnerova-Blažkova",50.7647972106934,15.0569610595703
241,"Fulda (Weimarer Straße)",50.555891,9.666109
242,"Funtana bus stop (tourist office)",45.17441,13.606126
243,"Fürstenberg (Havel)",53.185293,13.145401
244,"Füssen",47.568053,10.680501
245,"Futuroscope",46.664055,0.362181
246,"Gardaland",45.452609,10.714955
247,"Garding (Süderstraße)",54.327901,8.77971
248,"Gare Bruxelles-Midi",50.834999,4.33264
249,"Gare centrale de Bonn",50.712871,7.12027
250,"Gare centrale de Breda",51.596492767334,4.77830219268799
251,"Gare centrale de Coblenz",50.349442,7.589689
252,"Gare centrale de Dresden",51.0392456054688,13.732307434082
253,"Gare centrale de Duisburg",51.42876,6.777217
254,"Gare centrale de Göteborg",57.7085762023926,11.9711046218872
255,"Gare centrale de Innsbruck",47.261733,11.399098
256,"Gare centrale de Leipzig",51.34257,12.381275
257,"Gare centrale de Munich",48.14232,11.54988
258,"Gare centrale de Nürnberg",49.4467277526855,11.082013130188
259,"Gare centrale de Oberhausen",51.473819,6.851949
260,"Gare centrale de Olomouc",49.5924911499023,17.2783184051514
261,"Gare centrale d'Essen",51.450245,7.014807
262,"Gare centrale de Worms",49.636257,8.357406
263,"Gare centrale de Zweifalltorweg",49.87082,8.628651
264,"Gare centrale d'Ostrava",49.8521499633789,18.268461227417
265,"Gare centrale d'Ostrava (LEO)",49.852217,18.269236
266,"Gare Cologne-Arcaden",50.939304,6.995751
267,"Gare d'Aachen West",50.782292,6.071503
268,"Gare d'Aime-La Plagne",45.55448,6.64747
269,"Gare d'Amsterdam Centraal",52.3772953,4.8977993
270,"Gare d'Avellino",40.923186,14.819069
271,"Gare d'Avignon TGV",43.922647,4.785672
272,"Gare de Amersfoort",52.153122,5.371724
273,"Gare de Amsterdam Sloterdijk",52.389289,4.836263
274,"Gare de Banská Bystrica",48.7351722717285,19.1632823944092
275,"Gare de Banská Bystrica mesto",48.7314071655273,19.1465358734131
276,"Gare de Bantorf",52.332912,9.415509
277,"Gare de Bari Centrale",41.116996,16.86995
278,"Gare de Bassel",47.546199798584,7.58786249160767
279,"Gare de Bercy",48.838424,2.382411
280,"Gare de Berlin Südkreuz",52.4762001037598,13.3641633987427
281,"Gare de Böbligen",48.686526,9.00315
282,"Gare de Bratislava",48.158332824707,17.1059150695801
283,"Gare de Bruxelles-Nord",50.8607597351074,4.35957479476929
284,"Gare de bus Chomutov",50.4600677490234,13.408842086792
285,"Gare de bus Jirkov",50.4984245300293,13.4503345489502
286,"Gare de bus Louny",50.3548355102539,13.8045139312744
287,"Gare de bus Most",50.501106262207,13.6387205123901
288,"Gare de bus Rudolická MUS a.s.",50.508358001709,13.6588344573975
289,"Gare de Bystřice",49.6365432739258,18.7174491882324
290,"Gare de Čadca",49.4442176818848,18.786792755127
291,"Gare de Caserta",41.068959,14.326765
292,"Gare de Česká Třebová",49.8975372314453,16.4472103118896
293,"Gare de Český Těšín",49.7435493469238,18.6231136322021
294,"Gare de Dortmund",51.519293,7.460236
295,"Gare de Düren",50.808759,6.483956
296,"Gare de Düsseldorf",51.222719,6.795365
297,"Gare de Erlangen",49.5965,11.000056
298,"Gare de Flensburg",54.775005,9.436955
299,"Gare de Forchheim",49.716701,11.069042
300,"Gare de Frankfurt (Main)",50.106827,8.664428
301,"Gare de Fürth",49.470301,10.991233
302,"Gare de Girona",41.97901,2.817476
303,"Gare de Halle (Saale)",51.477507,11.984581
304,"Gare de Haluchère-Batignolles",47.248785,-1.520898
305,"Gare de Havířov",49.791088104248,18.4125499725342
306,"Gare de Heidelberg",49.403755,8.676578
307,"Gare de Heidenheim",48.681041,10.154805
308,"Gare de Heilbronn",49.141994,9.206132
309,"Gare de Homburg Saar",49.327597,7.33821
310,"Gare de Horná Štubňa obec",48.830940246582,18.8778266906738
311,"Gare de Hranice na M.",49.5657806396484,17.7422771453857
312,"Gare de Hulín",49.3165550231934,17.4773082733154
313,"Gare de Kaiserslautern",49.436611,7.767553
314,"Gare de Karviná ",49.855566,18.527045
315,"Gare de Kehl",48.576541,7.8081689
316,"Gare de Kolín",50.025142,15.213477
317,"Gare de Košice",48.7223625183105,21.2678852081299
318,"Gare de Kroměříž",49.3017044067383,17.4022369384766
319,"Gare de Kysak",48.8529739379883,21.2243251800537
320,"Gare de Landau",49.196678,8.125726
321,"Gare de Leer",53.230905,7.464173
322,"Gare de Liège-Guillemins",50.62405,5.568636
323,"Gare de Limburg Süd",50.381763,8.095244
324,"Gare de Linz",48.290414,14.291504
325,"Gare de Linz (Wissensturm)",48.2905807495117,14.2879343032837
326,"Gare de Liptovský Mikuláš",49.091983795166,19.6052360534668
327,"Gare de Łódź Kaliska",51.7577667236328,19.4322719573975
328,"Gare de Ludwigshafen",49.4776962,8.4360945
329,"Gare de Lüneburg",53.247988,10.418936
330,"Gare de Luxembourg",49.599154,6.133281
331,"Gare de Lviv",49.8387788,23.9957189
332,"Gare de Margecany",48.8946990966797,21.0123996734619
333,"Gare de Marsberg",51.462507,8.855189
334,"Gare de Marseille Saint-Charles",43.304179,5.379868
335,"Gare de Martin",49.0649261474609,18.9158477783203
336,"Gare d'Emden",53.369203,7.196731
337,"Gare de Melfi",40.989953,15.647442
338,"Gare de Mladá Boleslav město",50.4199328909778,14.917754994751
339,"Gare de Münster",51.956179,7.637284
340,"Gare de Náchod",50.4175224304199,16.1709938049316
341,"Gare de Návsí",49.5901489257812,18.7548332214355
342,"Gare de Neckarsulm",49.188746,9.218712
343,"Gare de Neustadt-Böbig",49.3555,8.158944
344,"Gare de Neustrelitz",53.359654,13.073125
345,"Gare de Nová Baňa",48.4129066467285,18.6467819213867
346,"Gare de Orlamünde",50.775939,11.544015
347,"Gare de Otrokovice",49.2024574279785,17.5317211151123
348,"Gare de Passau",48.574352,13.452241
349,"Gare de Peine",52.318714,10.232146
350,"Gare de Pessac Centre",44.804365,-0.632593
351,"Gare de Pirmasens",49.205329,7.598912
352,"Gare de Polignano a Mare",40.991186,17.217068
353,"Gare de Poprad-Tatry",49.0596733093262,20.2955112457275
354,"Gare de Potenza Centrale",40.629093,15.807061
355,"Gare de Potsdam",52.390524,13.067735
356,"Gare de Považská Bystrica",49.1224479675293,18.4318027496338
357,"Gare de Přerov",49.4471054077148,17.4456806182861
358,"Gare de Quartier Belvedere",48.188221,16.381495
359,"Gare de Regensburg",49.012506,12.097529
360,"Gare de Rothenburg",49.37709,10.19093
361,"Gare de Ružomberok",49.0832748413086,19.3090629577637
362,"Gare de Schüttorf",52.317085,7.22034
363,"Gare de Schwabach",49.325723,11.034329
364,"Gare de Sliač kúpele",48.6143760681152,19.1497287750244
365,"Gare de Spišská Nová Ves",48.9501800537109,20.5610065460205
366,"Gare de Springe",52.214838,9.5569
367,"Gare de Staré Město",49.0764427185059,17.4235172271729
368,"Gare de Strasbourg",48.583742,7.734008
369,"Gare de Štrba",49.0832290649414,20.0667018890381
370,"Gare de Studénka",49.707544,18.069077
371,"Gare de Stuttgart-Vaihingen",48.7268267,9.1116303
372,"Gare de Suchdol nad Odrou",49.642643,17.939148
373,"Gare de Trenčín",48.8964500427246,18.0516967773438
374,"Gare de Trier",49.758162,6.653117
375,"Gare de Trier (Kürenzer Straße)",49.758208,6.653136
376,"Gare de Třinec-Konská",49.701964,18.641458
377,"Gare de Trnava",48.3703689575195,17.5846214294434
378,"Gare de Turčianske Teplice",48.8627967834473,18.8539791107178
379,"Gare de Ujgorod",48.609326,22.2978927
380,"Gare de Varsovie-Central",52.2295227050781,21.001220703125
381,"Gare de Venise-Mestre",45.482223,12.233842
382,"Gare de Vrútky",49.1147155761719,18.9244899749756
383,"Gare de Weiden(Oberpf)",49.67027,12.155186
384,"Gare de Zábřeh na Moravě",49.8724021911621,16.8871879577637
385,"Gare de Žilina",49.226676940918,18.7459583282471
386,"Gare de Zlín-Louky",49.216394,17.625536
387,"Gare de Zlín-Malenovice",49.209612,17.595418
388,"Gare de Zvolen mesto",48.5771980285645,19.1320667266846
389,"Gare de Zvolen osobná stanica",48.5701560974121,19.1200065612793
390,"Gare de Zweibrücken",49.247358,7.357167
391,"Gare d'Ingolstadt",48.744814,11.436179
392,"Gare d'Ostrava Střed",49.8290596008301,18.2823524475098
393,"Gare d'Ostrava-Svinov",49.8211517333984,18.2094955444336
394,"Gare d'Uelzen",52.969301,10.554661
395,"Gare d'Utrecht-Central",52.089901,5.106319
396,"Gare Lille-Europe",50.638756,3.076675
397,"Gare principale de Frankfurt",50.104434967041,8.66306114196777
398,"Gare principale de Prague",50.0829200744629,14.4356060028076
399,"Gare routière Aéroport Nice Terminal 1",43.665136,7.210942
400,"Gare routière Aéroport Nice Terminal 2",43.660214,7.204862
401,"Gare routière Bourg-Saint-Maurice",45.61957,6.77172
402,"Gare routière centrale de Brno - Zvonařka",49.1858341270521,16.6166093945503
403,"Gare routière centrale de Wiesbaden",50.070865,8.246166
404,"Gare routière d'Aachen",50.785661,6.136859
405,"Gare routière d'Aarhus",56.151872,10.208975
406,"Gare routière d'Amiens",49.89202,2.3091
407,"Gare routière d'Andrzeja ",50.256166,19.016088
408,"Gare routière d'Angers",47.464855,-0.559369
409,"Gare routière d'Annecy",45.901671,6.121292
410,"Gare routière d'Ansbach",49.298858,10.577283
411,"Gare routière d'Arnhem Centraal",51.985608,5.899662
412,"Gare routière d'Avignon",43.942226,4.807341
413,"Gare routière de Antwerpen Plantinkaai",51.218055,4.39431
414,"Gare routière de Banská Bystrica",48.731330871582,19.160177230835
415,"Gare routière de Bardejov",49.2975578308105,21.2821140289307
416,"Gare routière de Berlin",52.507613,13.279764
417,"Gare routière de Bologne",44.5039939880371,11.3471708297729
418,"Gare routière de Bourges",47.082474,2.386704
419,"Gare routière de Bourg-Saint-Maurice",45.619772,6.771559
420,"Gare routière de Bratislava",48.147011,17.12855
421,"Gare routière de Bremen",53.082144,8.810603
422,"Gare routière de Brest",48.38749,-4.48214
423,"Gare routière de Budapest-Népliget",47.474306,19.0985
424,"Gare routière de Bussy-Saint-Georges",48.836525,2.708902
425,"Gare routière de Čadca",49.444414,18.786765
426,"Gare routière de Caen",49.176438,-0.347647
427,"Gare routière de České Budějovice",48.9724578857422,14.4874801635742
428,"Gare routière de Český Krumlov",48.8116188049316,14.3225240707397
429,"Gare routière de Chambéry",45.569767,5.918141
430,"Gare routière de Chamonix Sud",45.917305,6.8669
431,"Gare routière de Cheb",50.0746116638184,12.379693031311
432,"Gare routière de Chemnitz",50.840937,12.926689
433,"Gare routière de Clermont-Ferrand",45.77078,3.0823
434,"Gare routière de Coburg",50.261262,10.958401
435,"Gare routière de Cracovie",50.0678825378418,19.949535369873
436,"Gare routière de Dax",43.720267,-1.04965
437,"Gare routière de Deauville",49.359119,0.084067
438,"Gare routière de Donostia",43.317134,-1.977381
439,"Gare routière de Dvůr Králové n.L.",50.4288215637207,15.8172988891602
440,"Gare routière de Flensburg",54.785869,9.437538
441,"Gare routière de Freiburg im Breisgau",47.995991,7.840748
442,"Gare routière de Freiburg (Pressehaus)",47.986356,7.829212
443,"Gare routière de Fréjus",43.43557,6.73739
444,"Gare routière de Frýdek-Místek",49.6784210205078,18.3512191772461
445,"Gare routière de Genève",46.208384,6.146746
446,"Gare routière de Gießen",50.580932,8.666598
447,"Gare routière de Gießen (Licher Straße)",50.576429,8.708671
448,"Gare routière de Györ",47.6810684204102,17.6364192962646
449,"Gare routière de Hamburg",53.551559,10.011042
450,"Gare routière de Hameln",52.101429,9.373824
451,"Gare routière de Hannover",52.378816,9.740866
452,"Gare routière de Helsingborg",56.042610168457,12.6949167251587
453,"Gare routière de Hradec Králové HD",50.2169342041016,15.8129949569702
454,"Gare routière de Humpolec",49.5383567810059,15.3485193252563
455,"Gare routière d'Eindhoven",51.4417457580566,5.48035907745361
456,"Gare routière de Jihlava",49.399585723877,15.5801553726196
457,"Gare routière de Jindřichův Hradec",49.1540374755859,15.0048742294312
458,"Gare routière de Karlsruhe",48.991465,8.400066
459,"Gare routière de Katowice",50.2626266479492,19.0172481536865
460,"Gare routière de Kežmarok",49.1380348205566,20.4229507446289
461,"Gare routière de Köbenhavn",55.6681938171387,12.5642719268799
462,"Gare routière de Kolding",55.492308,9.483467
463,"Gare routière de Köln",50.8813285827637,7.11727380752563
464,"Gare routière de Köln Deutz",50.938367,6.988212
465,"Gare routière de Košice",48.7207527160645,21.2678470611572
466,"Gare routière de Krusa",54.841217,9.402721
467,"Gare routière de La Baule",47.288196,-2.389843
468,"Gare routière de Lens",50.427724,2.826756
469,"Gare routière de Liberec",50.7637546263648,15.047289874205
470,"Gare routière de Limoges",45.836153,1.268487
471,"Gare routière de Lingen",52.51926,7.320695
472,"Gare routière de Liptovský Mikuláš",49.091251373291,19.6072273254395
473,"Gare routière de Lučenec",48.3342018127441,19.6685199737549
474,"Gare routière de Maastricht",50.851498,5.704227
475,"Gare routière de Magdeburg",52.131407,11.624511
476,"Gare routière de Malmö",55.607909,13.000309
477,"Gare routière de Mannheim",49.478305,8.472181
478,"Gare routière de Marburg",50.8171,8.774759
479,"Gare routière de Martin",49.0641021728516,18.9157848358154
480,"Gare routière de Menton",43.777216,7.494158
481,"Gare routière de Metz",49.110633,6.183319
482,"Gare routière de Milano",45.489441,9.127631
483,"Gare routière de Mlynské Nivy",48.1468811035156,17.1282978057861
484,"Gare routière de Montélimar",44.560003,4.745104
485,"Gare routière de Moravské Budějovice",49.0565071105957,15.8085165023804
486,"Gare routière de Moûtiers",45.4868,6.5294
487,"Gare routière de Mulhouse",47.742012,7.341712
488,"Gare routière de Niebüll",54.790195,8.834263
489,"Gare routière de Niort",46.307555,-0.485627
490,"Gare routière de Nitra",48.3036270141602,18.0807018280029
491,"Gare routière de Nový Jičín",49.5970001220703,18.0100364685059
492,"Gare routière de Nuremberg",49.447659,11.085513
493,"Gare routière de Padova",45.4155654907227,11.8834085464478
494,"Gare routière de Pardubice",50.0320587158203,15.7572269439697
495,"Gare routière de Pelhřimov",49.4252281188965,15.223388671875
496,"Gare routière de Perpignan",42.695241,2.878706
497,"Gare routière de Písek",49.2994995117188,14.1461200714111
498,"Gare routière de Plzeň",49.746475,13.362774
499,"Gare routière de Podolínec",49.2592315673828,20.5366764068604
500,"Gare routière de Poitiers",46.582953,0.334555
501,"Gare routière de Popad",49.0593719482422,20.2930355072021
502,"Gare routière de Prerow",54.442541,12.577683
503,"Gare routière de Prešov",48.9843444824219,21.2509918212891
504,"Gare routière de Pressehaus",47.9857177734375,7.82918119430542
505,"Gare routière de Quimper",47.994466,-4.093558
506,"Gare routière de Rennes",48.103855,-1.671236
507,"Gare routière de Reutlingen",48.496281,9.211053
508,"Gare routière de Rimavská Sobota",48.3835525512695,20.0290851593018
509,"Gare routière de Rotterdam Centraal",51.923531,4.466534
510,"Gare routière de Royan",45.626235,-1.016416
511,"Gare routière de Rožňava",48.6598091125488,20.5350780487061
512,"Gare routière de Ružomberok",49.0836143493652,19.3077793121338
513,"Gare routière de Saarbrücken",49.241822,7.000021
514,"Gare routière de Saint-Brieuc",48.510628,-2.758477
515,"Gare routière de Saint-Étienne",45.4425,4.402861
516,"Gare routière de  Saint-Jean-de-Luz",43.38596,-1.66122
517,"Gare routière de Saint-Jean-de-Luz",43.386359,-1.660108
518,"Gare routière de Saint-Malo",48.650608,-2.021605
519,"Gare routière de Schwabach",49.32723,12.102584
520,"Gare routière de Sereď",48.2860870361328,17.7405796051025
521,"Gare routière de Sokolov",50.1855201721191,12.6427211761475
522,"Gare routière de Stará Ľubovňa",49.3080863952637,20.6812477111816
523,"Gare routière de Strasbourg",48.574241,7.75426
524,"Gare routière de Tábor",49.414192199707,14.6746234893799
525,"Gare routière de Telč",49.1820182800293,15.4640254974365
526,"Gare routière de Toulon",43.127797,5.930755
527,"Gare routière de Toulouse",43.613299,1.452226
528,"Gare routière de Třebíč",49.2144813537598,15.875433921814
529,"Gare routière de Třeboň",49.008430480957,14.7648706436157
530,"Gare routière de Trenčín",48.8959274291992,18.0513954162598
531,"Gare routière de Třinec",49.687565,18.662183
532,"Gare routière de Trnava",48.3709945678711,17.5844383239746
533,"Gare routière de Trutnov",50.5645713806152,15.9082021713257
534,"Gare routière de Tübingen",48.516895,9.056738
535,"Gare routière de Uddevalla",58.3528518676758,11.8163652420044
536,"Gare routière de Uherské Hradiště",49.0700874328613,17.4652423858643
537,"Gare routière de Valence",44.926909,4.892386
538,"Gare routière de Vannes",47.664938,-2.752321
539,"Gare routière de Vejle",55.705387,9.535812
540,"Gare routière de Velké Meziříčí",49.3477439880371,16.0216598510742
541,"Gare routière de Venezia",45.4821090698242,12.2342252731323
542,"Gare routière de Vrútky",49.1139678955078,18.9237194061279
543,"Gare routière de Warendorf",51.950299,7.985067
544,"Gare routière de Westerland",54.905913,8.310401
545,"Gare routière de Wolfsburg",52.4269828796387,10.7900876998901
546,"Gare routière de Wroclaw",51.0963897705078,17.0385913848877
547,"Gare routière de Würzburg",49.800858,9.937604
548,"Gare routière de Žiar nad Hronom",48.5888442993164,18.8574924468994
549,"Gare routière de Žilina",49.2247543334961,18.7475566864014
550,"Gare routière de Zingst (Zentrum)",54.43359,12.68636
551,"Gare routière de Zlín",49.2257690429688,17.6611766815186
552,"Gare routière de Znojmo",48.8515625,16.0560779571533
553,"Gare routière de Zvolen",48.5706405639648,19.1185932159424
554,"Gare routière d'Osnabrück",52.273772,8.058144
555,"Gare routière d'Ostrava",49.8306617736816,18.2804889678955
556,"Gare routière du Havre",49.492105,0.125341
557,"Gare routière - Marktplatz",50.769066,8.581743
558,"Gare routière Na Knížecí",50.0684051513672,14.4044494628906
559,"Gare routière PKS Poznań ",52.402757,16.913948
560,"Gare routière ÚAN Florenc",50.089385,14.440723
561,"Gare routière Victoria Coach",51.492513,-0.148349
562,"Gare SNCF Agde",43.317339,3.466285
563,"Gare SNCF Aix-en-Provence Ville",43.5232,5.4451
564,"Gare SNCF Auxerre",47.796629,3.584484
565,"Gare SNCF Avranches",48.690151,-1.369671
566,"Gare SNCF Béthune",50.521377,2.641188
567,"Gare SNCF Béziers",43.336634,3.218351
568,"Gare SNCF Biarritz",43.4596854849,-1.545781222
569,"Gare SNCF Calais Ville",50.953887,1.848083
570,"Gare SNCF Carhaix",48.278242,-3.562308
571,"Gare SNCF Chalon-sur-Saône",46.7827186,4.8458779
572,"Gare SNCF Charleville-Mézières",49.767887,4.724556
573,"Gare SNCF Chartres",48.447805,1.48116
574,"Gare SNCF de Sedan",49.695071,4.930709
575,"Gare SNCF Dijon Ville",47.324051,5.027794
576,"Gare SNCF Dunkerque",51.03119,2.368964
577,"Gare SNCF Forbach",49.188723,6.900089
578,"Gare SNCF Grenoble",45.192833,5.714294
579,"Gare SNCF Guingamp",48.558297,-3.149072
580,"Gare SNCF Hendaye",43.351103,-1.783282
581,"Gare SNCF La Rochelle",46.152825,-1.146445
582,"Gare SNCF Laval",48.075971,-0.757787
583,"Gare SNCF Le Mans",47.996055,0.191394
584,"Gare SNCF Lorient",47.754364,-3.367113
585,"Gare SNCF Lyon Part-Dieu",45.760522,4.862373
586,"Gare SNCF Lyon-Perrache",45.748854,4.825925
587,"Gare SNCF Mont-de-Marsan",43.885149,-0.50459
588,"Gare SNCF Pau",43.292344,-0.369695
589,"Gare SNCF Saint-Etienne Chateaucreux",45.44245,4.402894
590,"Gare SNCF St-Aubin les Elbeufs",49.302277,1.009964
591,"Gare Utrecht-Lunetten",52.065911,5.143117
592,"Garmisch-Partenkirchen station (Bahnhofstraße)",47.491033,11.09813
593,"Gdańsk (Bus station)",54.356587,18.642709
594,"Gelnhausen train station",50.196639,9.188565
595,"Gelsenkirchen (ZOOM Erlebniswelt)",51.542163,7.10986
596,"Gera central train station",50.883509,12.079057
597,"Ghent (Akkerhage)",51.019208,3.735202
598,"Ghent (Dampoort)",51.054957,3.739849
599,"Girona (Gerona Airport)",41.896679,2.766083
600,"Göhren (Rügen)",54.345715,13.738117
601,"Görlitz (bus station)",51.148141,14.977648
602,"Gornja Vrba",45.174886,18.064463
603,"Goslar bus station",51.910967,10.421194
604,"Gospić bus station",44.548309,15.368141
605,"Gotha bus station",50.940183,10.712618
606,"Göttingen central bus station",51.534945,9.926184
607,"Graal-Müritz",54.249142,12.245504
608,"Gradište",45.1451,18.728218
609,"Grandhotel Brno",49.1933555603027,16.6142520904541
610,"Gransee",53.004071,13.161532
611,"Graz central train station",47.07375,15.416833
612,"Graz (Girardigasse)",47.068477,15.44409
613,"Graz Murpark (Ostbahnstraße)",47.04081,15.46511
614,"Graz Puntigam (Brauhaus)",47.030266,15.431751
615,"Greding (Zur Achmühle)",49.043098,11.349811
616,"Greifswald central bus station",54.093678,13.36997
617,"Greifswald (Klinikum)",54.086935,13.402998
679,"Kerpen-Horrem (Busbahnhof)",50.916331,6.71471
618,"Grenoble (Condillac-Universités)",45.189309,5.774476
619,"Greven Station",52.092203,7.608229
620,"Grömitz (Markt)",54.151078,10.956496
621,"Groningen central station",53.211648,6.566523
622,"Grosseto train station",42.767642,11.107248
623,"Groß Särchen (Hauptstraße)",51.365549,14.310266
624,"Guéret",46.173989,1.879016
625,"Gummersbacher Straße",50.9383506774902,6.9887261390686
626,"Gütersloh central bus station",51.90769,8.384239
627,"Haffkrug train station",54.05355,10.742778
628,"Hagnau am Bodensee (West)",47.677615,9.314303
629,"Hainburg (Donau), Hauptplatz",48.147424,16.941238
630,"Hainburg (Donau), Pfaffenbergweg",48.140195,16.921559
631,"Hainburg (Donau) Ungartor",48.147168,16.947218
632,"Halberstadt bus station",51.898274,11.073671
633,"Hamminkeln train station",51.735224,6.60125
634,"Hamm train station (Unionstraße)",51.67647,7.806419
635,"Hanau central train station",50.121412,8.931168
636,"Haren (P+R A28 / Vondellaan)",53.169574,6.591309
637,"Hasselt Station",50.931727,5.326435
638,"Hatě, CLO",48.755931854248,16.0647144317627
639,"Haugsdorf, ZOLL, A",48.7538414001465,16.0642795562744
640,"Heide (central bus station)",54.195861,9.097344
641,"Helmstedt train station (Bahnhofstraße)",52.221894,11.009196
642,"Hengelo Station",52.26211,6.795271
643,"Heringsdorf station (Usedom)",53.949396,14.169608
644,"Herne central bus station",51.544482,7.218346
645,"Herzberg am Harz (Osteroder Straße car park)",51.655975,10.333833
646,"Herzhausen Vöhl (Itterstraße)",51.184677,8.893463
647,"Herzogenaurach (Bahnhofstraße)",49.566899,10.885117
648,"Herzogenrath station",50.87099,6.094911
649,"Hessisch Lichtenau (Abzw. Orthopädische Klinik)",51.208717,9.71026
650,"Hessisch Oldendorf train station",52.166874,9.244843
651,"Hildesheim (Hindenburgplatz)",52.149715,9.955595
652,"Himmelkron (Autohof)",50.05418,11.62229
653,"Hof central train station",50.308734,11.922931
654,"Hohentwielstadion",47.764556,8.851671
655,"Hollfeld (Spitalplatz)",49.9365,11.291161
656,"Hoyerswerda (""Lausitzer Platz"" bus stop)",51.437865,14.263705
657,"Hradčanská",50.0971488952637,14.4031190872192
658,"Hüfingen (Mariahof)",47.92151,8.497371
659,"Hvězda",50.6395149230957,15.1121664047241
660,"Hyères",43.116885,6.1339
661,"Ilmenau (bus station)",50.686033,10.922204
662,"Immenstaad (Rathaus)",47.665693,9.367024
663,"Immenstadt (Jahnstraße)",47.559478,10.221071
664,"Isselburg Autohof",51.819003,6.44582
665,"Istituto Professionale Falcone",40.624179,17.929451
666,"Itzehoe (central bus station)",53.922863,9.514768
667,"Jastrebarsko",45.659476,15.639479
668,"Jena bus station (Paradies station)",50.925717,11.587604
669,"Jever central bus station",53.568756,7.894513
670,"Kahla train station",50.808715,11.588862
671,"Kaltenkirchen Dodenhof",53.843998,9.936476
672,"Kampen centre",54.955341,8.342361
673,"Karlovac (Busbahnhof)",45.488384,15.550233
674,"Karlovy Vary Lower Station",50.2308921813965,12.8701505661011
675,"Kassel Kaufungen Papierfabrik",51.291578,9.56572
676,"Kassel (Wilhelmshöhe train station)",51.31227,9.44807
677,"Kellenhusen central bus station",54.190142,11.055792
678,"Kempten (Allgäu)",47.719819,10.317048
680,"Kiel interim central bus station",54.310865,10.130618
681,"Kirchberg John F. Kennedy",49.632249,6.169858
682,"Klagenfurt central train station (bus station)",46.616335,14.311549
683,"Klausen (Chiusa) station",46.641651,11.572782
684,"Kleinwelka (Hoyerswerdaer Straße)",51.213224,14.392981
685,"Klek",42.946776,17.564522
686,"Kocanda",49.2430572509766,17.6738739013672
687,"Köln Bonn Flughafen",50.881149,7.11771
688,"Königswartha (by the church)",51.309953,14.328644
689,"Koper bus station",45.539456,13.738173
690,"Koprivnica bus station",46.164827,16.817504
691,"Korbach central bus station",51.279006,8.8735
692,"Korenica",44.743868,15.706596
693,"Köthen (central bus station)",51.750215,11.988633
694,"Kraków Airport",50.0718231201172,19.8009090423584
695,"Krefeld central bus station",51.324625,6.569706
696,"křiž.",49.2187957763672,17.7463226318359
697,"Krk",45.023557,14.569671
698,"Kühlungsborn Ost train station",54.147957,11.75903
699,"Kutina bus station",45.479599,16.772601
700,"Lac de Constance",47.701081,9.183882
701,"La Défense",48.89132,2.24233
702,"Lagerstrasse",47.4221153259277,9.36607074737549
703,"Lana (Lido)",46.608785,11.175297
704,"Landshut bus station",48.5466,12.135858
705,"L'Aquila (Terminal Bus - Collemaggio, Piano 0)",42.344464,13.401581
706,"La Spezia (Viale Italia)",44.104471,9.826717
707,"Latina (Bus Station)",41.473083,12.895151
708,"Lauterburger Straße",49.078159,8.20048
709,"Leiden",52.148102,4.492341
710,"Leipzig Messe",51.396924,12.396222
711,"Le Pont Saint-Gervais-les-Bains",45.89472,6.71081
712,"Lermoos (Grubigsteinbahn)",47.401639,10.878905
713,"Les Contamines - Office du tourisme",45.822378,6.72685
714,"Les Deux Alpes",45.010488,6.124617
715,"Les Houches - Saint Antoine",45.895815,6.806569
716,"Lešná,ZOO",49.2711944580078,17.7146224975586
717,"Les Rousses (Tourrist Office)",46.483062,6.06108
718,"Leutkirch",47.826803,10.017229
719,"Leuven Station (Perron 14)",50.882717,4.714373
720,"Leverkusen Mitte station (prev. Cologne)",51.032051,6.991004
721,"Liberec bus station",50.76363,15.046549
722,"Lidový dům",49.0761108398438,17.4446029663086
723,"Liezen",47.561171,14.24667
724,"Lindau (Berliner Platz)",47.552786,9.703958
725,"Lingotto",45.025254,7.656457
726,"Linz Industriezeile",48.299579,14.321474
727,"Lípa",49.2139167785645,17.7706699371338
728,"List Ferry",55.017879,8.437081
729,"Livorno train station",43.554147,10.33572
730,"Ljubljana bus station",46.057722,14.510167
731,"Lloret de Mar (Coach station)",41.701087,2.84235
732,"London Greenwich Station",51.477905,-0.013298
733,"Longarone (stazione FS)",46.267257,12.3016
734,"Lons-le-Saunier Autocar Transarc Credoz",46.693051,5.557807
735,"Lorient/Lanester",47.77791,-3.34207
736,"Lörrach central train station",47.615973,7.665964
737,"Löwenberg (Karl-Marx-Platz)",52.895885,13.148776
738,"Lübeck central train station",53.866181,10.669183
739,"Lubmin (Seebad)",54.13317,13.615295
740,"Lucca (Viale Regina Margherita)",43.83843,10.505039
741,"Ludbreg bus station",46.248152,16.622331
742,"Lüdenscheid (Worth)",51.227639,7.649315
743,"Lugano (Via Ciani)",46.023241,8.963924
744,"Lugoj (Busbahnhof)",45.684929,21.91435
745,"Lungadige Monte Grappa",46.0690002441406,11.1154823303223
746,"Lussac-Les-Châteaux",46.402487,0.725479
747,"Mâcon",46.303398,4.826976
748,"Mainau Park",47.700389,9.183275
749,"Mainz central train station",50.00332,8.2577
750,"Mairie Le Barcarès",42.789047,3.035265
751,"Malá Hradební (OC Forum)",50.6581573486328,14.0394401550293
752,"Malenovice, ZPS",49.2051696777344,17.5726203918457
753,"Malinska",45.122428,14.526459
754,"Manfredonia (Via Aldo Moro)",41.626458,15.913033
755,"Mantova (Strada Cipata)",45.162408,10.812224
756,"Marble Arch",51.511457,-0.15831
757,"Mariahof",47.921632,8.497803
758,"Maribor bus station",46.558917,15.655222
759,"Marienberg (Reitzenhainer Straße)",50.648068,13.160097
760,"Markdorf (Ravensburger Straße)",47.719829,9.391456
761,"Marktredwitz (Bahnhofsplatz)",50.003965,12.082845
762,"Marling (Marlengo)",46.657776,11.144922
763,"Marseille",43.314779,5.368539
764,"Marseille Arenc",43.314779,5.368539
765,"Maslenica",44.224139,15.536997
766,"Massa (Stazione FS)",44.023964,10.136311
767,"Massy-Palaiseau",48.72766,2.264629
768,"McArthurGlen Troyes",48.328044,4.100755
769,"Medebach Center Parcs",51.206534,8.689732
770,"Medulin",44.825929,13.931475
771,"Meersburg",47.695249,9.271471
772,"Megève Autogare",45.859001,6.618116
773,"Melle (Riemsloher Straße)",52.190812,8.351577
774,"Memmingen Allgäu airport",47.989719,10.232262
775,"Memmingen central bus station",47.984439,10.186589
776,"Mendig (Vulkaneifel)",50.382748,7.269642
777,"Mengen",48.053206,9.336757
778,"Meppen Bahnhof",52.696171,7.29692
779,"Meran (Terme)",46.668917,11.159333
780,"Merklingen (industrial park)",48.51518,9.758144
781,"Merseburg bus station",51.356425,11.991397
782,"Meschede bus station",51.349065,8.280059
783,"Metković bus station",43.053861,17.642044
784,"Métro Alt-Tegel",52.591713,13.282017
785,"Metropark Centrale",40.850931,14.273617
786,"Metzingen (Outlet P5/P6)",48.531832,9.27631
787,"Michalovce",48.750984,21.89995
788,"Milan (San Donato M3)",45.429198,9.256083
789,"Milan (Sesto S.G. 1° Maggio M1)",45.541863,9.239034
790,"Millau (Central Bus Station)",44.102213,3.074826
791,"Modena (Terminal via Gottardi)",44.630647,10.950426
792,"Modrič",44.260259,15.537754
793,"Mönchengladbach central train station",51.198242,6.446858
794,"Montargis Ouest (Tollgate at motorway exit 18)",47.992301,2.677124
795,"Montauban Albasud",43.981611,1.331707
796,"Montbéliard Acropole",47.509245,6.802094
797,"Monte Lungo Firenze",43.7807960510254,11.246636390686
798,"Montluçon (Central bus station)",46.337443,2.597606
799,"Mont Saint-Michel",48.60883,-1.50819
800,"Moulins (Central bus station)",46.56235,3.338828
801,"Mühldorf Nord",48.272976,12.549904
802,"Mukačevo",48.438764,22.731364
803,"Münchberg Autohof",50.20334,11.777464
804,"Munich Fröttmaning",48.211032,11.619267
805,"Murter",43.823855,15.593505
806,"Na Florenci",50.0890963217133,14.4405707716942
807,"Nagykanizsa (bus station)",46.45686,16.98568
808,"na kopci",48.9726715087891,15.8960218429565
809,"Narbonne (Central bus station)",43.18829,3.003596
810,"Na Špici",50.3464775085449,15.9098663330078
811,"Nassenheide (Teerofener Weg)",52.81107,13.224011
812,"Near Bonn Hbf",50.735221,7.087355
813,"Neheim-Hüsten train station",51.438485,7.970046
814,"Népliget M Station",47.4762153625488,19.0993843078613
815,"Neschwitz (Neudorf, B96)",51.275709,14.339768
816,"Neßmersiel (Strandstraße)",53.68586,7.360199
817,"Neubrandenburg central bus station",53.561262,13.258676
818,"Neuenburg am Rhein (Grenze)",47.814063,7.549793
819,"Neumünster train station",54.074655,9.979967
820,"Neunkirchen (Lindenallee)",49.348662,7.177274
821,"Neustadt in Holstein central bus station",54.104147,10.807292
822,"Neu-Ulm ZUP",48.392093,10.003175
823,"Neu-Ulm ZUP bus station",48.392235,10.003431
824,"Nevers (Central bus station)",46.988998,3.150369
825,"Nienhagen (Mitte)",54.157719,11.953084
826,"Nijmegen Centraal Station (Tunnelweg)",51.843691,5.855311
827,"Norddeich (Mole train station)",53.624249,7.158151
828,"Norden bus station (Bahnhofstraße)",53.588964,7.21732
829,"Nordhausen train station",51.493574,10.789905
830,"Nordhorn (city terminal)",52.429674,7.065568
831,"Notre dame St-Joseph Berck-sur-Mer",50.409007,1.568345
832,"Nova Gradiška bus station",45.254099,17.378315
833,"Novara train station",45.451137,8.623754
834,"Novska",45.3427,16.975406
835,"Novy Most",48.1407432556152,17.1042938232422
836,"Noyelles-Godault (bus station)",50.413602,2.988308
837,"Nuštar",45.332497,18.841362
838,"Oberstdorf train station (Im Steinach)",47.412206,10.277855
839,"Offenburg (Güterstraße)",48.481584,7.946513
840,"Offenburg Messeplatz",48.464643,7.93201
841,"Oldenburg central bus station",53.145696,8.222081
842,"Olsberg train station",51.360339,8.482936
843,"Olympiaworld Innsbruck",47.2579765319824,11.4080142974854
844,"Opatija (Busbahnhof)",45.333053,14.302562
845,"Opole (Bus station)",50.662995,17.929273
846,"Opuzen",43.014806,17.560349
847,"Orange (Arc de Triomphe)",44.141699,4.805252
848,"Orly Sud",48.73166,2.37375
849,"Orvieto Scalo (Piazza Matteotti)",42.723478,12.126333
850,"Osijek bus station",45.553192,18.680033
851,"Oslo Bus Terminal",59.911190032959,10.7591829299927
852,"Osterode am Harz (Mitte station)",51.726526,10.246725
853,"Paderborn central bus station",51.712967,8.739677
854,"Paderborn (Maspernplatz west)",51.723047,8.753847
855,"Padua (Parking Piazzale Boschetti)",45.412613,11.881724
856,"Palermo Ferry Terminal",38.127822,13.363443
857,"Paray-Le-Monial",46.447679,4.113826
858,"Parc Astérix",49.136899,2.570402
859,"Parc de Bagatelle Rang-du-Fliers",50.431079,1.606165
860,"Parking Château Descas",44.829813,-0.555482
861,"Parking Circé",43.604452,3.918318
862,"Parking Hofgarten",47.270634,11.398569
863,"Parking les Peupliers",47.383496,0.702171
864,"Parking Poids Lourds - A1",49.706844,2.769223
865,"Parking Relais Arcachon",44.652175,-1.161429
866,"Parking Relais Micropolis",47.2215,5.97861
867,"Parking Relais Parnasse",43.817307,4.36177
868,"Parking Relais Porte de Lyon",45.823712,4.76287
869,"Parking St. Bénézet",43.95192,4.803392
870,"parking Velodrome",46.5365180969238,6.6231517791748
871,"Parkpl. Alte Einsegnungshalle",49.2069396972656,6.96145629882812
872,"Parma Terminal bus",44.811147,10.327717
873,"Parndorf",47.9758636,16.8515183
874,"Parthenay (Bus Stop ""ZAC des loges"")",46.646976,-0.217769
875,"Pasewalk station",53.514662,13.989123
876,"Pau Université",43.311334,-0.36455512
877,"Perugia (Piazzale Umbria Jazz)",43.109492,12.361501
878,"Perugia (Piazza Partigiani)",43.105692,12.388241
879,"Pesaro (Piazzale G. Falcone P. Borsellino)",43.906106,12.906074
880,"Pescara (bus terminal)",42.470014,14.204547
881,"Peschiera del Garda",45.438872,10.702388
882,"Piacenza (parking lot)",45.030967,9.688063
883,"Piazza della Concordia",40.673844,14.770179
884,"Piazza de Napoli",40.819117,16.559347
885,"Piazza Falcone e Borsellino",40.748023,14.505355
886,"Piazzale Carmelo Bene",40.363064,18.168364
887,"Piazzale Padre Pio",41.069023,15.059945
888,"Piazza Vittoria",44.4039878845215,8.94601440429688
889,"Pinggau (Park+Ride Pinggau Süd)",47.4243,16.090282
890,"Pirovac bus station",43.82123,15.67049
891,"Pisa (Pietrasantina car park)",43.729521,10.389915
892,"Pistoia (Piazza Treviso)",43.929383,10.914857
893,"Pitomača",45.948274,17.232248
894,"Place au Bois",43.229995,0.08026
895,"Place de la Liberté",49.840279,3.290239
896,"Place des Basques",43.49342,-1.479337
897,"Place du Barlet",50.3644,3.08522
898,"Place Général de Gaulle",43.345339,3.217992
899,"Place Paul Asseman",51.04723,2.38385
900,"Place Rol Tanguy",48.577534,-3.833038
901,"Place Thiers",45.156972,1.535421
902,"Plitvička Jezera",44.881857,15.623422
903,"Ploiești (Busbahnhof Süd)",44.92527,26.026711
904,"P&O Ferries Calais",50.966596,1.862854
905,"Poggibonsi (via Salceto)",43.468264,11.153432
906,"Poličnik",44.171362,15.375192
907,"Poreč bus station",45.224498,13.597662
908,"Porta Nuova",45.4313926696777,10.9812860488892
909,"Porte de Gouesnou",48.431091,-4.467244
910,"Porte d'Orléans",48.821139,2.325379
911,"Porte Maillot",48.879911,2.282163
912,"Porto Civico-p.verde",40.83991,8.401174
913,"Porto d'Ascoli (Via Piave)",42.9096,13.891853
914,"Porto Garibaldi (Viale dei Mille)",44.678742,12.241495
915,"Portorož",45.51361,13.595452
916,"Posedarje",44.217132,15.465393
917,"Postojna (bus stop Supernova)",45.7697,14.195809
918,"Prato (Piazzale Del Museo)",43.859506,11.107381
919,"P+R Augsburg Nord",48.401731,10.877033
920,"Pražská sídl.",48.8669052124023,16.0354881286621
921,"Praz-sur-Arly Mairie",45.837949,6.571725
922,"P+R Fröttmaning",48.211027,11.61942
923,"Primošten",43.588196,15.925508
924,"P+R Süd",47.7699203491211,13.0714769363403
925,"P+R Westraven",52.057186126709,5.10529518127441
926,"P+R Zeeburg Parking",52.3723258972168,4.95926475524902
927,"Ptuj bus station",46.421184,15.876399
928,"Pula bus station",44.876111,13.855089
929,"Punat",45.018704,14.628442
930,"Puttgarden Ferry Terminal",54.50082,11.225913
931,"Quai de Léon",48.44961,-4.25215
932,"Quai du Havre",49.43918,1.08735
933,"Quai Max Laubeuf",43.547133,7.013264
934,"Quai Sainte-Catherine",48.695491,6.190661
935,"Quality Hotel Sarpsborg",59.2954750061035,11.06520652771
936,"Quedlinburg train station",51.785194,11.151809
937,"Radstadt (Postamt)",47.384624,13.461196
938,"Rakovica",44.992054,15.648417
939,"Ravenna (Pala De Andrè)",44.421943,12.22566
940,"Ravensburg train station (Escher-Wyss-Straße)",47.783559,9.604522
941,"Recklinghausen",51.617629,7.203693
942,"Reggio Emilia central bus station",44.699154,10.642623
943,"Rendsburg central bus station",54.302948,9.667753
944,"Reutlingen central bus station",48.496282,9.211161
945,"Rheine train station",52.276438,7.435774
946,"Rijeka bus station",45.327907,14.436863
947,"Rimini (Centro Studi)",44.049722,12.582369
948,"Roanne (Central bus station)",46.039094,4.062023
949,"Rochefort",45.965422,-0.959558
950,"Rødby Ferry Terminal",54.655054,11.354309
951,"Roermond (Shopping Centre)",51.198845,5.98555
952,"Rogoznica",43.541145,15.96892
953,"Roma Tiburtina",41.9094619750977,12.5281581878662
954,"Rostock central bus station",54.076458,12.130252
955,"Rotterdam Station Lombardijen",51.880925,4.534307
956,"Rotterdam Zuidplein (Platform X)",51.886311,4.487591
957,"Route en Corniche",50.527322,1.582964
958,"Rovanjska",44.253215,15.538827
959,"Rovigo (Uscita A13 Rovigo Nord)",45.117881,11.770771
960,"Rovinj bus station",45.080724,13.638708
961,"Rudolstadt (Schwarza Traube)",50.689537,11.323165
962,"Rudolstadt train station",50.718302,11.339086
963,"Rue de Bouillon",49.6001625061035,6.10476922988892
964,"Rue de la Bourie Rouge",47.919533,1.903494
965,"Rue du 7eme Chasseurs",49.027964,1.145053
966,"Rue du Faubourg Saint-Martin",48.8786315917969,2.3619077205658
967,"Rust (Europa park)",48.2697332,7.7213824
968,"Rzeszów bus station",50.042998,21.994098
969,"Rzeszów main station",50.042434,22.004673
970,"Saalfeld bus station",50.650462,11.373733
971,"Sablanceaux (Pôle d'échanges)",46.16261,-1.257232
972,"Saint Brieuc - Plérin",48.533697,-2.759268
973,"Saint-Chély d'Apcher Nord",44.870775,3.251781
974,"Saint-Dizier",48.638246,4.92947
975,"Sainte-Foy-Tarentaise",45.586991,6.884707
976,"Saint-Martin-de-Ré (Parking Vauban)",46.205421,-1.36276
977,"Salzburg central station (Lastenstraße)",47.813956,13.048003
978,"Salzburg main station (platform)",47.812901,13.045594
979,"Salzgitter (Rathaus Lebenstedt)",52.155954,10.326798
980,"Samobor bus station",45.808838,15.716685
981,"San Benedetto del Tronto (Piazza Cesare Battisti 5/7)",42.949909,13.87727
982,"San Benedetto del Tronto (Piazza Nardone)",42.951878,13.876986
983,"Sankt Pölten central train station",48.207934,15.624651
984,"San Severo (Piazza della Costituzione)",41.684741,15.391742
985,"San Vito di Cadore (Centro)",46.463849,12.204677
986,"Sarzana",44.116736,9.946602
987,"Sattledt (Trainstation)",48.073944,14.057472
988,"Saumur Nord -Vivy",47.310084,-0.031614
989,"Savona (Piazza Aldo Moro)",44.307903,8.471265
990,"Scharbeutz (Hamburger Ring / Gorch-Fock-Ring)",54.022183,10.75161
991,"Scharnitz (Innsbruckerstraße)",47.390186,11.264591
992,"Schladming (Lendplatz)",47.391142,13.683731
993,"Schleiz (Industriestraße)",50.551969,11.789977
994,"Schleswig (Schleihallenparkplatz)",54.511334,9.5453
995,"Schmallenberg (Bödefeld)",51.249772,8.394026
996,"Schortens train station",53.542545,7.94636
997,"Schrobenhausen (Münchener Straße)",48.549282,11.260969
998,"Schweinfurt central train station",50.036072,10.211078
999,"Schwenningen Rössleplat",48.063977,8.53809
1000,"Schwerin central train station",53.634634,11.408617
1001,"Sebeș (Busbahnhof)",45.957561,23.579114
1002,"Seefeld (Rosshütte)",47.331097,11.199976
1003,"Seesen train station (Bahnhofsplatz)",51.887874,10.173294
1004,"Séez",45.623171,6.799069
1005,"Selb (Goetheplatz)",50.173767,12.126129
1006,"Seline",44.276672,15.477062
1007,"Sellin (Rügen)",54.376064,13.690455
1008,"Senigallia (stazione FS)",43.715824,13.221381
1009,"Serravalle Scrivia (Outlet)",44.735223,8.837485
1010,"Sète",43.412022,3.695866
1011,"Šibenik (Busbahnhof)",43.732265,15.893073
1012,"Sibiu (Busbahnhof Turnișor)",45.794391,24.130337
1013,"Siedlinghausen (Hochsauerlandstraße)",51.252743,8.472049
1014,"Siegen (Berliner Straße)",50.871655,8.016199
1015,"Siena train station",43.331378,11.323178
1016,"Sierksdorf (Bananenmuseum)",54.068158,10.769941
1017,"Sierksdorf (Hansa Park)",54.073975,10.774819
1018,"Sigmaringen (Station)",48.086313,9.22321
1019,"Simbach bus station",48.263654,13.024632
1020,"Singen (Hohentwielstadion)",47.764702,8.851794
1021,"Sisteron",44.194898,5.94255
1022,"Skradin",43.817735,15.923945
1023,"Skradinsko Polje",43.833855,15.910403
1024,"Slatina bus station",45.706352,17.704407
1025,"Slavonski Brod bus station",45.162829,18.009094
1026,"Slunečná",49.232852935791,17.6612339019775
1027,"Slunj",45.114757,15.585768
1028,"Sobrance (Autobusová stanica)",48.74652,22.176179
1029,"Soltau (Autohof Soltau south)",52.945688,9.881219
1030,"Soltau (Designer Outlet)",52.982951,9.924288
1031,"Soltau (Heidepark)",53.022066,9.87282
1032,"Sonthofen (Eichendorffstraße)",47.517663,10.272957
1033,"Sortie Autoroute A16",50.506381,1.678748
1034,"Sortie Autoroute A7",44.481531,4.762784
1035,"Špičák",48.8154563903809,14.3159093856812
1036,"Split bus station",43.504111,16.44279
1037,"Spoleto (viale G.Matteotti)",42.727677,12.735254
1038,"Spremberg (Hoyerswerdaer Straße)",51.564826,14.363385
1039,"Šrámkova",49.2125091552734,17.6141719818115
1040,"Stade central bus station",53.59653,9.475657
1041,"Stadion De Koel",51.3519706726074,6.18176317214966
1042,"Stankovci",43.906909,15.694877
1043,"Starigrad",44.295121,15.438387
1044,"Station Les Sabines",43.583932,3.860233
1045,"Station-service TOTAL Access",48.990319,4.34392
1046,"Station Stadthalle",50.818896,7.148624
1047,"Station Valence Sud",44.908109,4.881103
1048,"Sterzing (Vipiteno)",46.88959,11.434131
1049,"St. Gallen train station",47.422274,9.366621
1050,"St-Martin des Champs - Centre Commercial Géant",48.573588,-3.850294
1051,"St. Michael (Bahnhof)",47.346958,15.009532
1052,"Stodolní",49.8345489501953,18.2812061309814
1053,"St. Peter-Ording (Böhler Strand)",54.282328,8.664811
1054,"St. Peter-Ording (Marktplatz)",54.306212,8.636334
1055,"St. Peter-Ording (station)",54.318009,8.613645
1056,"St. Pölten (Mariazeller Straße)",48.182846,15.616461
1057,"Stralsund (Weidendamm)",54.308535,13.08856
1058,"Straubing train station",48.877502,12.574444
1059,"Stryiskyi Bus Station",49.7867811,24.0164858
1060,"Stuttgart - Aéroport",48.691773,9.196808
1061,"Stuttgart North (Kornwestheim)",48.862463,9.179332
1062,"Suhl/Zella-Mehlis Station",50.6465828,10.6748378
1063,"Sukošan",44.052962,15.309211
1064,"Sveta Nedelja",45.799548,15.776937
1065,"Sveti Filip i Jakov",43.963936,15.42465
1066,"Szczecin (Główny railway station)",53.4176519,14.549105
1067,"Szczecin (Warzymice Osiedle Kresy)",53.386419,14.481963
1068,"Tábor",49.3885197,14.6911561
1069,"Tai Di Cadore (Piazzale Dolomiti)",46.422676,12.359471
1070,"Taranto (Terminal Bus)",40.481128,17.224168
1071,"Tar (service station Ina)",45.2998,13.62218
1072,"Tating (Dorfplatz)",54.324565,8.704637
1073,"Teramo (Piazza San Francesco)",42.66047,13.706947
1074,"Terlan (Karl-Atz-Platz)",46.529319,11.249702
1075,"Terni",42.569497,12.65236
1076,"Teschendorf (An der Trift)",52.850777,13.173014
1077,"Těšovice",50.177303314209,12.669075012207
1078,"Tignes Val Claret (Central Bus Station)",45.457331,6.901682
1079,"Timișoara (Bus station Normandia)",45.745619,21.254285
1080,"Timmendorfer Strand central bus station",53.994873,10.78177
1081,"Tisno",43.799414,15.642036
1082,"Titisee Badeparadies Schwarzwald",47.907612,8.159214
1083,"Titisee-Neustadt Badeparadies",47.9077198,8.1593764
1084,"Tönning (station)",54.315131,8.937279
1085,"Torino Porta Nuova",45.062613,7.679807
1086,"Torino Porta Susa",45.073329,7.667624
1087,"Toruń (Bus station)",53.015743,18.607943
1088,"Tourcoing",50.721307,3.162876
1089,"Treviso (Centro commerciale Emisfero)",45.651287,12.307373
1090,"Tribunj",43.756237,15.7457
1091,"Trieste bus station",45.657193,13.770828
1092,"Trogir (Konzum)",43.518424,16.251139
1093,"Tržnice",50.2308921813965,12.8701505661011
1094,"Tübingen central train station",48.516637,9.055885
1095,"Tullnerfeld (Bahnhof)",48.295207,15.996488
1096,"U2 Stadion",48.2109985351562,16.4220352172852
1097,"Überlingen bus station",47.769278,9.163279
1098,"Udbina",44.533717,15.765526
1099,"Uhlstädt train station",50.742062,11.464776
1100,"u kostela",49.6408615112305,18.1406269073486
1101,"u lesa",48.9489974975586,15.9204387664795
1102,"Ulm-Böfingen Eberhard-Finckh-Straße",48.425861,10.010413
1103,"Ulm (Eberhard-Finckh-Straße)",48.425855,10.010422
1104,"Umag bus station",45.431487,13.529458
1105,"Université du Maine",48.01741,0.14944
1106,"u pošty",49.640380859375,18.1407337188721
1107,"Usedom (town)",53.873353,13.916169
1108,"Val d'Isère (Rest stop)",45.450499,6.976711
1109,"Valkenswaard (Markt)",51.350141,5.458665
1110,"Valpovo bus station",45.657401,18.418132
1111,"Varaždin bus station",46.304205,16.334141
1112,"Varbergs Golfhotell",57.0637245178223,12.3515882492065
1113,"Venezia Tronchetto",45.441978,12.30798
1114,"Verrès",45.667442,7.687927
1115,"Via Don L.Sturzo",40.676866,16.590142
1116,"via Lagravinese",40.948739,17.289121
1117,"Viale dei Mandorli",41.260371,15.907776
1118,"Viale dei Rettori",41.131499,14.782848
1119,"Viale Ovidio",41.240961,16.292604
1120,"Viareggio (Piazza d'Azeglio)",43.866894,10.244692
1121,"Vicenza (Viale ippodromo)",45.54313,11.537664
1122,"Vienna (Central train station)",48.185304,16.372863
1123,"Vienna Erdberg (VIB)",48.190869,16.414007
1124,"Vienna Hütteldorf",48.197118,16.260806
1125,"Vienna (Karlsplatz)",48.200811,16.369838
1126,"Vienna Matzleinsdorferplatz (Triester Straße)",48.17952,16.35878
1127,"Vienna West Station (Europaplatz)",48.196775,16.337657
1128,"Vienna West Station (Felberstraße)",48.19783,16.33756
1129,"Vierzon",47.221484,2.062291
1130,"Villach Bus Station",46.61775,13.847884
1131,"Villefranche-sur-Saône ""Nord""",46.021096,4.721783
1132,"Villingen-Schwenningen (Rößleplatz)",48.063944,8.538705
1133,"Vinkovci bus station",45.299047,18.802077
1134,"Virovitica bus station",45.835584,17.387759
1135,"Vitry-Le-François",48.728045,4.591545
1136,"Vittorio Emanuele",45.069623,7.659043
1137,"Vodice bus station",43.759176,15.778415
1138,"Vogelkoje",54.988577,8.367751
1139,"Vrsar",45.153001,13.610928
1140,"Vršovice",50.065055847168,14.4481859207153
1141,"Vukovar bus station",45.352796,18.998893
1142,"Wangen im Allgäu (bus station)",47.688632,9.830971
1143,"Warnemünde Strand (Jugendherberge)",54.175823,12.057052
1144,"Warnemünde Werft",54.168966,12.083817
1145,"Warszawa Airport Chopina",52.1692406,20.9742722
1146,"Warszawa bus station Zachodnia (west)",52.218398,20.961755
1147,"Warszawa Młociny (Młociny Station)",52.291061,20.927342
1148,"Warszawa station Wschodnia (east)",52.250261,21.052871
1149,"Weeze Airport",51.599018,6.149691
1150,"Weeze train station (Holtumsweg)",51.624445,6.197179
1151,"Wehretal (Kasseler Straße)",51.139999,9.972297
1152,"Weimar central train station",50.990864,11.327247
1153,"Weißenfels (Am Kloster)",51.199882,11.967903
1154,"Wels central train station",48.165806,14.026837
1155,"Wenningstedt-Braderup centre",54.93575,8.322985
1156,"Wernigerode bus station",51.840653,10.790655
1157,"Wesel train station",51.655222,6.625419
1158,"Westendorf in Tirol (Gondelbahn)",47.428041,12.213409
1159,"Wetter (Hessen)",50.905246,8.727849
1160,"Wieck a. Darss (Prerower Straße)",54.410621,12.581909
1161,"Wien Airport",48.12141,16.56246
1162,"Wiener Neustadt (Hauptbahnhof)",47.812271,16.234934
1163,"Wilhelmshaven central train station (Marktstraße)",53.519814,8.119475
1164,"Wilsonova bus station",50.0834770202637,14.4352836608887
1165,"Winterberg (Bahnhofstraße)",51.19585,8.532895
1166,"Winterthur (Lagerhausstraße)",47.497645,8.723394
1167,"Wismar central bus station",53.89728,11.465178
1168,"Wittichenau (Maukendorf)",51.398779,14.296671
1169,"Wittmund (Marktplatz)",53.574582,7.783716
1170,"Wolfenbüttel (Schmidt Terminal)",52.156361,10.534392
1171,"Wolfsthal",48.136127,17.008754
1172,"Wuppertal train station (Berliner Straße)",51.275083,7.224487
1173,"Wustrow (Wustrow Mitte bus stop)",54.347799,12.398857
1174,"Xanten train station",51.659376,6.445962
1175,"Zadar bus station",44.106432,15.241135
1176,"Zádveřice",49.2123603820801,17.8077011108398
1177,"Zagreb (bus station)",45.803417,15.992278
1178,"Žarnovica, motel Sitno",48.4827041625977,18.721586227417
1179,"Zaventem Airport",50.898033,4.481017
1180,"Zeitz train station",51.055841,12.133294
1181,"Želetava",49.1422576904297,15.6728134155273
1182,"Z.I. Bastillac",43.222661,0.044219
1183,"Zličín",50.0553436279297,14.2901601791382
1184,"Zoo de Berlin",52.508387,13.333913
1185,"Zschopau (Am Zschopenberg primary school)",50.741095,13.070161
1186,"Županja bus station",45.077537,18.695953
1187,"Zurich central station (Sihlquai car park)",47.380855,8.537436
1188,"Zwickau central train station",50.715645,12.477722
1189,"Zwickau (Stadthalle)",50.703895,12.498069
1190,"Aabenraa Busstation",55.0451963,9.422896099999999
1191,"Aachen Bhf West",50.782218,6.07171530000005
1192,"Aachen Hbf",50.7687734,6.08975280000004
1193,"Aachen Wilmersdorfer Str.",50.785672999999996,6.136553
1194,"Aalborg Busterminal",57.042889,9.91719499999999
1195,"Aarau Bhf",47.3923255,8.05358209999997
1196,"Aarhus Busterminal",56.15201170000001,10.20792389999997
1197,"Abano Terme",45.35172,11.77616
1198,"Aberdeen Coach Station",57.1435703,-2.09686850000003
1199,"Aberystwyth Bhf",52.414977500000006,-4.08051839999996
1200,"Aberystwyth University",52.41966,-4.06515739999998
1201,"Accrington Coach Station",53.753068500000005,-2.36378309999998
1202,"Acle",52.6389661,1.54808600000001
1203,"Adlershot Bhf",51.2483053,-0.761484
1204,"Affoltern Raststätte",47.2762099,8.43938809999997
1205,"Aheloy Tankstelle Lukoil",42.64589369999999,27.645386000000034
1206,"Ahlbeck Bhf",53.9360015,14.18869510000002
1207,"Ahlbeck Seetelhotel Ostseehotel",53.94154,14.190589999999931
1208,"Ahrenshoop Mitte",54.380297999999996,12.419229
1209,"Ahrenshoop Niehagen",54.360459999999996,12.40875000000006
1210,"Aix-en-Provence Avenue Henri Mouret",43.523355200000005,5.437338700000059
1211,"Albena Parkplatz",43.3650196,28.073913100000034
1212,"Albergaria Velha",40.6890381,-8.4755897
1213,"Albertville",45.6729444,6.3816562
1214,"Alcobaça Mercado Municipal",39.5519997,-8.9759411
1215,"Aleksinac Autokuska",43.53957990000001,21.710353400000034
1216,"Alexandroupoli - Alexandroupoli Tours",40.84642059999999,25.874108500000034
1217,"Alicante Flughafen",38.289961,-0.55266900000004
1218,"Allgäu Skyline Park",48.06683659999999,10.58166259999996
1219,"Alnwick ZOB",55.450777,-1.71086270000001
1220,"Alresford",51.856422200000004,1.0009058000000601
1221,"Altilia A3",39.1024491,16.24779119999994
1222,"Altomonte",39.679986299999996,16.16114889999994
1223,"Amarante",41.267906599999996,-8.0739079
1224,"Ambleside",54.430445299999995,-2.9649919999999397
1225,"Amersfoort Hbf",52.1530064,5.3722236999999495
1226,"Amesbury",51.172227500000005,-1.78011479999998
1227,"Amsterdam Amstel Station",52.346587,4.918318
1228,"Amsterdam Amstel Station (Tramstation)",52.3468157,4.91957760000003
1229,"Amsterdam CS",52.3781666,4.89981250000005
1230,"Amsterdam Dam",52.3728109,4.89308719999997
1231,"Amsterdam Double Tree Hilton Hotel",52.37776210000001,4.9095973999999405
1232,"Amsterdam Duivendrecht",52.3230055,4.936358700000031
1233,"Amsterdam Europaboulevard P18",52.326046000000005,4.890240599999969
1234,"Amsterdam Leidseplein",52.363708100000004,4.88202339999998
1235,"Amsterdam Rembrandtplein",52.3664597,4.89752279999993
1236,"Amsterdam Schiphol",52.3064326,4.76133949999996
1237,"Amsterdam Sloterdijk",52.389118700000004,4.83627569999999
1238,"Amstetten Bhf",48.121703100000005,14.876022400000009
1239,"Ancona Hbf",43.6074482,13.498058899999931
1240,"Ancona Molo Sud",43.61663000000001,13.50576999999998
1241,"Andover Coach Station",51.20947,-1.4823710000000603
1242,"Angers Gare routiere",47.46442329999999,-0.55794259999993
1243,"Anklam ZOB",53.855194,13.701303
1244,"Ansdell",53.7394166,-2.99297950000005
1245,"Antwerpen Crown Plaza Hotel",51.1900652,4.40515340000002
1246,"Antwerpen Hbf",51.21665220000001,4.42045140000005
1247,"Antwerpen Van Stralenstr.",51.220508,4.418719
1248,"Anwick",53.082983999999996,-0.26612199999999997
1249,"Arad Gazprom Tankstelle",46.1865606,21.31226770000001
1250,"Arad Maranata",46.1797805,21.33712130000004
1251,"Arad Tankstelle",46.1835229,21.313712200000058
1252,"Arad Transdara",46.195383,21.32013600000005
1253,"Arco Baulhe",41.4864124,-7.9620959999999705
1254,"Arenys de Mar",41.577929100000006,2.54925449999996
1255,"Arezzo A1",43.4371936,11.77528099999995
1256,"Arezzo SP21",43.46328390000001,11.879633600000028
1257,"Arles Chemin des Moines",43.697669399999995,4.63770460000001
1258,"Arlon (Parc des Expositions)",49.679055,5.802817
1259,"Arnheim Hbf",51.985871,5.898918
1260,"Arrêt OUIBUS 159E RIA Briançon",44.897001,6.634323
1261,"Arrêt OUIBUS Albasud Montauban",43.981774,1.331668
1262,"Arrêt OUIBUS Ax-Les-Thermes",42.720577,1.839396
1263,"Arrêt OUIBUS Centre Station Les Orres",44.494097,6.557182
1264,"Arrêt OUIBUS Chamrousse",45.126366,5.878321
1265,"Arrêt OUIBUS Gare Routière Les Ménuires",45.325443,6.538201
1266,"Arrêt OUIBUS Las Bailletas Encamp",42.543888,1.73478
1267,"Arrêt OUIBUS Les Chalps",44.623508,6.63411
1268,"Arrêt OUIBUS Parking du Stade Saint-Lary-Soulan",42.822327,0.322765
1269,"Arrêt OUIBUS Parking La Mongie",42.910356,0.181414
1270,"Arrêt OUIBUS Piscine Méribel",45.393701,6.566459
1271,"Arrêt OUIBUS Val Thorens",45.299193,6.575772
1272,"Arundel",50.852570899999996,-0.55179010000006
1273,"Aschaffenburg Stadtbadstrasse",49.974740000000004,9.13144
1274,"Ashby-de-la-Zouch",52.74703,-1.47127499999999
1275,"Ashford",51.149736600000004,0.87471019999998
1276,"Ashford (Willesborough)",51.136354600000004,0.9162284000000199
1277,"Ashington",55.18388349999999,-1.5677447000000502
1278,"Aslackby",52.8610184,-0.38524810000001
1279,"Astley Bridge",53.6005631,-2.43265640000004
1280,"Atena Lucana",40.456706200000006,15.541387100000069
1281,"Athen Acharnon",37.9884566,23.726819699999968
1282,"Attigliano A1",42.516838899999996,12.292241999999991
1283,"Attleborough",52.51831139999999,1.01788869999996
1284,"Augsburg Oberhausen Nord",48.402440999999996,10.880186500000038
1285,"Augsburg P+R Parkplatz",48.40202739999999,10.87655089999998
1286,"Aveiro",40.64087979999999,-8.655796300000018
1287,"Avellino Piazza Kennedy",40.9165085,14.791576800000028
1288,"Avezzano",42.040766,13.42656
1289,"Aviemore Bhf",57.187821299999996,-3.82944139999995
1290,"Avrig",45.7332529,24.37743990000001
1291,"Ayr Coach Station",55.46242489999999,-4.633975700000059
1292,"Baabe Kleinbahn Bhf",54.361895,13.705096
1293,"Baabe Strandhotel",54.36112070000001,13.711110800000029
1294,"Babino Selo",44.23421039999999,17.35107249999999
1295,"Bacau Stadion",46.5565937,26.912734499999942
1296,"Bačka Topola",45.812106799999995,19.62911639999993
1297,"Bad Birnbach Artrium",48.44095,13.08636000000001
1298,"Bad Brambach Parkhotel",50.22234,12.30162999999993
1299,"Bad Elster",50.2827806,12.23968059999993
1300,"Bad Füssing",48.354007,13.311454999999999
1301,"Bad Gottleuba Tankstelle",50.845956,13.94422409999993
1302,"Bad Griesbach",48.43223,13.183507999999998
1303,"Bad Harzburg Bhf",51.887454999999996,10.555402
1304,"Bad Hersfeld Bhf",50.8679166,9.71381959999997
1305,"Bad Lauterberg Postplatz",51.63112,10.47089000000005
1306,"Bad Reichenhall Pinding",47.76421999999999,12.904639999999972
1307,"Bad Sachsa Kurverwaltung",51.600703,10.548989
1308,"Bad Salzuflen ZOB",52.081520000000005,8.741020800000001
1309,"Bad Segeberg ZOB",53.9338796,10.31018789999996
1310,"Baia Mare Bhf",47.646826000000004,23.55404999999996
1311,"Bakewell Metlock Street",53.22164670000001,-1.67307110000002
1312,"Balchik Botanicheska gradina",43.405843100000006,28.147626299999963
1313,"Balchik Complex Marina",43.40587319999999,28.159842900000058
1314,"Baldock",51.989884499999995,-0.18846919999998998
1315,"Bale",45.040703,13.783752
1316,"Baltsy ZOB",47.768832700000004,27.94218330000001
1317,"Bamberg Bhf",49.900495,10.898647
1318,"Banbury Coach Station",52.062113000000004,-1.3312430999999398
1319,"Banesti Campina",45.0924652,25.76692159999993
1320,"Bangor",53.22863539999999,-4.1259331
1321,"Banja Luka ZOB",44.78732979999999,17.21062040000004
1322,"Bansin Filmeck",53.9636527,14.13361839999993
1323,"Bansin Kaiser Spa Hotel zur Post",53.97104960000001,14.143215199999991
1324,"Banska Bystrica",48.7299657,19.16327130000002
1325,"Banstead",51.313367,-0.21309510000002999
1326,"Baranów Sandomierski",50.496479,21.543130199999947
1327,"Barcelona Bellaterra",41.492581099999995,2.10024020000003
1328,"Barcelos bus station",41.536964700000006,-8.610166100000018
1329,"Bar Eko Tankstelle Šušanj",42.106943799999996,19.09456780000005
1330,"Barnsley Coach Station",53.554136899999996,-1.4784778000000602
1331,"Barnstaple",51.079054299999996,-4.05686349999996
1332,"Basel Gartenstraße",47.5511518,7.59773329999996
1333,"Basel Meret-Oppenheimer-Str",47.5466394,7.58694430000003
1334,"Basildon Coach Station",51.5685732,0.45954670000003
1335,"Basingstoke",51.2677402,-1.0882194000000698
1336,"Baska Voda Bushaltestelle",43.3564946,16.955916000000002
1337,"Bath",51.378097600000004,-2.35722250000003
1338,"Bath London Road",51.391288700000004,-2.35343880000005
1339,"Bath Spa",51.377880700000006,-2.35936889999994
1340,"Battipaglia",40.6143446,14.969401599999971
1341,"Battipaglia Ospedale",40.6136108,14.973131900000002
1342,"Battle",50.915257000000004,0.48562740000000004
1343,"Bautzen (August-Bebel-Platz)",51.1761119,14.432937400000009
1344,"Bavois Raststätte",46.674676,6.568662499999959
1345,"Bayonne Face à la gare SNCF",43.49648699999999,-1.4708832
1346,"Bayreuth Goethestr.",49.95156,11.577869999999962
1347,"Bayreuth Kaserne",49.93989999999999,11.563210000000028
1348,"Bayreuth ZOB",49.950826,11.579107
1349,"Beccles",52.459529,1.56270589999997
1350,"Beckhampton",51.4191249,-1.87180509999996
1351,"Belfast Europe Bus Centre",54.595097499999994,-5.936106399999971
1352,"Belfast Stena Terminal",54.90571260000001,-5.0296687
1353,"Belfort Avenue Wilson",47.63293909999999,6.854793200000019
1354,"Belgrad Petrol Station Nis Petrol ZMAJ",44.8312874,20.36980399999993
1355,"Belgrad ZOB",44.810186,20.4544
1356,"Bellinzona Nord",46.222654399999996,9.046689000000018
1357,"Bellinzona Via Henri Guisan",46.1958438,9.02518140000007
1358,"Belluno (stazione FS)",46.141367,12.210329
1359,"Belper ZOB",53.02211029999999,-1.48446579999995
1360,"Benidorm ZOB",38.5488321,-0.12553149999997
1361,"Benissa",38.7153284,0.06029809999995
1362,"Beograd Autokomanda",44.787750900000006,20.46362739999995
1363,"Berane ZOB",42.8474791,19.87070249999999
1364,"Bergamo Airport",45.67346810000001,9.688758199999938
1365,"Bergamo Autostazione",45.691431099999996,9.67522280000003
1366,"Bergen ZOB",54.419,13.420920000000018
1367,"Bergisch Gladbach (Refrath)",50.953852,7.116608
1368,"Berlin Bhf Zoo",52.508425,13.33371
1369,"Berlin Flughafen Schönefeld",52.38904669999999,13.51941269999998
1370,"Berlin Flughafen Tegel",52.553068,13.292229
1371,"Berlin Hbf",52.52521899999999,13.368398100000038
1372,"Berlin Hohenschönhausen A10",52.59673000000001,13.60025999999994
1373,"Berlin Ostbahnhof",52.510149,13.433167999999998
1374,"Berlin Schönefeld S-Bahn",52.388182799999996,13.50634969999999
1375,"Berlin Südkreuz",52.4764431,13.36414330000002
1376,"Berlin U-Bahn Alt-Tegel",52.5916015,13.28208300000006
1377,"Berlin ZOB",52.50675699999999,13.28024770000002
1378,"Berlin ZOB Aral Tankstelle",52.5084744,13.280776400000038
1379,"Bern P+R Neufeld",46.963001,7.43206299999997
1380,"Berwick-upon-Tweed",55.7697865,-2.0062519000000503
1381,"Besancon Avia",47.27704310000001,5.993024200000041
1382,"Bexhill",50.8415036,0.47006069999997996
1383,"Béziers",43.3049803,3.2171796000000095
1384,"Biala Podlaska - Artyleryjska",52.036058000000004,23.112492
1385,"Biala Podlaska - Warszawska",52.032165,23.101480300000002
1386,"Biala Podlaska - Zeromskiego",52.038728000000006,23.125934
1387,"Bialobrzegi",51.650487,20.95600000000002
1388,"Bialystok ZOB",53.1319446,23.136650499999966
1389,"Bibione ZOB",45.64050039999999,13.05462310000007
1390,"Bickington",51.0727185,-4.0929102999999705
1391,"Bideford",51.0189265,-4.20417450000002
1392,"Bidford-on-Avon",52.164191100000004,-1.86201989999995
1393,"Biecz",49.730332000000004,21.250767999999987
1394,"Bielefeld Brackwede Bhf",51.997555,8.499212
1395,"Bielefeld Hbf",52.028578,8.533196
1396,"Bielsko-Biala BP Tankstelle",49.830507,19.04460889999996
1397,"Bielsko-Biala ZOB",49.830507,19.04460889999996
1398,"Bihac",44.81264669999999,15.879831900000001
1399,"Bijelijna Autobuska",44.7576247,19.22038169999996
1400,"Bijelo Polje ZOB",43.0337665,19.75568180000005
1401,"Bileca",42.8769138,18.427063699999962
1402,"Billericay",51.633896500000006,0.42517109999994
1403,"Billingham",54.610249200000005,-1.30006660000004
1404,"Billinghay",53.0784659,-0.27609899999993
1405,"Bingley",53.84924920000001,-1.8390296999999698
1406,"Binz Bhf",54.405018999999996,13.60101
1407,"Binz IFA Rügen Hotel",54.41199,13.59748999999999
1408,"Biograd na Moru",43.9380015,15.444010899999972
1409,"Birchington",51.3741196,1.30803549999996
1410,"Birkenhead",53.3923029,-3.0239688000000298
1411,"Birmingham Airport",52.452967,-1.7322004000000102
1412,"Birmingham Bearwood",52.471673100000004,-1.9692618000000301
1413,"Birmingham Coach Station",52.47543470000001,-1.89034659999993
1414,"Birmingham Five Ways",52.4719796,-1.94856319999997
1415,"Birmingham Great Barr",52.5486549,-1.93595430000005
1416,"Bishops Stortford",51.8680479,0.1624319
1417,"Bispingen Snow Dome",53.10410649999999,9.98307449999993
1418,"Bistrita Busbahnhof",47.13275609999999,24.48574589999998
1419,"Blackburn",53.74978429999999,-2.4789776999999704
1420,"Blackpool Central Coach Station",53.81374510000001,-3.0524305999999797
1421,"Blackpool Clifton Drive North",53.767124800000005,-3.04974330000005
1422,"Blankenburg Hbf",51.794968,10.960557000000001
1423,"Bled ZOB",46.3714309,14.10674100000006
1424,"Blizne",49.748323,21.980461999999992
1425,"Blyth",55.12745529999999,-1.50657509999996
1426,"Böblingen Hbf",48.6866438,9.00377950000006
1427,"Bochnia",49.9766542,20.43118809999999
1428,"Bochum Hbf",51.478658,7.22577679999995
1429,"Bödefeld",51.249772,8.394026
1430,"Bodmin",50.471649600000006,-4.717477099999999
1431,"Bognor Regis",50.7834876,-0.6735270999999999
1432,"Bognor Regis Butlins",50.7873852,-0.6609733000000201
1433,"Bolesławiec Bp Wesoła",51.265537200000004,15.559667900000019
1434,"Bologna Hbf",44.505613399999994,11.343291499999962
1435,"Bologna Marconi Airport",44.534521600000005,11.287859300000038
1436,"Bologna Piazza XX",44.504222999999996,11.345486
1437,"Bolton Central Coach Station",53.57748369999999,-2.4326518000000297
1438,"Bolton-le-Sands",54.10535279999999,-2.79104570000004
1439,"Bombarral Tribunal",39.2681096,-9.154711899999938
1440,"Bonn Posttower",50.715151500000005,7.127500599999959
1441,"Bonn Thomastr.",50.73485,7.088603
1442,"Bordeaux Arret Terres des Bordes",44.8230321,-0.55452130000003
1443,"Bordon",51.1222651,-0.8599772999999699
1444,"Born am Darß",54.38726,12.53197
1445,"Boryspil Busbahnhof",50.3489402,30.9538456
1446,"Bosanski Gradiska ZOB",45.1436764,17.25486469999999
1447,"Bosanski Petrovac",44.554798299999995,16.36847499999999
1448,"Bosnjaci NTL",45.0499483,18.75612980000005
1449,"Boston Central Coach Station",52.976857900000006,-0.028267000000029997
1450,"Botosani Parcare Elvila",47.7457192,26.66788120000001
1451,"Bourgoin-Jallieu Ford",45.5970069,5.2672363000000395
1452,"Bourne",52.7706434,-0.37720549999995
1453,"Bournemouth Coach Station",50.726243200000006,-1.8615403000000001
1454,"Bournemouth Pier",50.71670779999999,-1.8769949000000001
1455,"Bournemouth University",50.7430968,-1.8987793000000002
1456,"Box",51.4190598,-2.24895919999994
1457,"Brackley",52.0276855,-1.1491327999999599
1458,"Bradford Central Coach Station",53.7915784,-1.75024540000004
1459,"Braga Bus station",41.555902,-8.42482259999997
1460,"Braganca",41.80894970000001,-6.7609334
1461,"Braintree",51.8807799,0.58288719999996
1462,"Brandenburg an der Havel Hbf",52.40116,12.56648999999993
1463,"Branksome",50.7271435,-1.9208912999999899
1464,"Brasov Bhf",45.6609446,25.61351089999994
1465,"Brașov Mol",45.6387533,25.630027700000035
1466,"Brasov Stadion",45.663832,25.584871000000017
1467,"Bratislava AS Mlynske Nivy",48.1461611,17.12823389999994
1468,"Bratislava Bahnhof",48.1459227,17.10716300000001
1469,"Bratislava Trolleybus HS AS Mlynske Nivy",48.146283000000004,17.127516
1470,"Bratislava ZOB",48.1472243,17.126783800000002
1471,"Braunlage Eisstadion",51.728703,10.611334
1472,"Braunschweig Hansastraße Mc Donalds Parkplatz",52.308941,10.51036550000003
1473,"Braunschweig  ZOB",52.2536,10.537140000000019
1474,"Braunton",51.1103086,-4.16150770000002
1475,"Brcko Autobuska",44.872656299999996,18.810627599999982
1476,"Breda Hbf",51.594828,4.781091
1477,"Bremen Hbf Breitenweg",53.0821468,8.810885900000018
1478,"Bremen ZOB",53.08318810000001,8.809106400000019
1479,"Bremerhaven Bhf",53.536570999999995,8.599827000000001
1480,"Brentwood",51.6208714,0.30474609999998997
1481,"Brescia Autostazione",45.53345119999999,10.214426799999961
1482,"Brescia Ovest",45.5333506,10.17604210000002
1483,"Brescia (SAIA bus station)",45.533056,10.214444
1484,"Brestovsko",44.008155200000004,18.02691359999994
1485,"Brest ZOB",52.0989328,23.69129759999998
1486,"Bridgend",51.5319651,-3.5723034000000093
1487,"Bridgwater",51.1297424,-2.9993160999999904
1488,"Bridlington",54.08386059999999,-0.18898030000003
1489,"Bridport Coach Station",50.73359869999999,-2.76211650000005
1490,"Brierfield",53.82473,-2.2343682000000604
1491,"Brighouse",53.702621400000005,-1.7803698000000199
1492,"Brighton Patcham",50.83665,-0.13647000000003
1493,"Brighton Pool Valley Coach Station",50.819942299999994,-0.13828929999999998
1494,"Brighton Preston Circus",50.8336987,-0.13962800000002
1495,"Brighton Preston Park",50.845054600000005,-0.15141270000004
1496,"Brighton University",50.86256229999999,-0.08800640000004
1497,"Brighton Withdean Park",50.83665,-0.13647000000003
1498,"Brighton York Place",50.8287445,-0.13555810000003002
1499,"Brignoles 35",43.418172399999996,6.064558600000059
1500,"Bristol",51.3868473,-2.7082057999999702
1501,"Bristol Airport",51.386772,-2.7106790999999903
1502,"Bristol Bishopsworth",51.418232700000004,-2.61713980000002
1503,"Bristol Black Boy Hill",51.47270779999999,-2.61572790000002
1504,"Bristol Clifton Down",51.46441420000001,-2.60927860000004
1505,"Bristol Coach Station",51.458843200000004,-2.59339729999999
1506,"Bristol Emersons Green",51.4910815,-2.47339729999999
1507,"Bristol Keynsham Church",51.4172818,-2.49956010000005
1508,"Bristol Longwell Green",51.4482945,-2.4997757999999504
1509,"Bristol Retail Parks",51.43086599999999,-2.54230840000002
1510,"Bristol Saltford The Crown",51.4011005,-2.4559563000000297
1511,"Bristol Stoke Gifford",51.517958,-2.5481651999999704
1512,"Bristol University Queens Road",51.456568299999994,-2.60636640000007
1513,"Brixham",50.394063200000005,-3.5164432999999904
1514,"Brno Benesova Bahnhof",49.19319489999999,16.6149471
1515,"Brno Busbahnhof Zvonarka",49.186870500000005,16.61871250000002
1516,"Broadstairs",51.364024,1.42180630000007
1517,"Brügge Hbf",51.1986019,3.2180227000000095
1518,"Brüssel",50.8603185,4.36092859999997
1519,"Brüssel CCN Gare du Nord",50.86119679999999,4.3589994000000205
1520,"Brüssel Gare du Midi",50.8354511,4.33360930000004
1521,"Brüssel Hbf",50.8463477,4.35771669999997
1522,"Brzesko Dworzec PKS",49.96973,20.60986690000004
1523,"Brzozów",49.7051964,22.02170869999998
1524,"Brzozów 3 Maja",49.687321000000004,22.028389000000058
1525,"Bucuresti",44.420770000000005,26.065853400000037
1526,"Bucuresti Bhf Nord",44.446831,26.07817799999998
1527,"Bucuresti Militari bus station",44.4267674,26.10253839999996
1528,"Budapest Airport Ferihegy",47.4502882,19.235419500000038
1529,"Budapest Albert Florian",47.4725903,19.09685360000003
1530,"Budapest Keleti Kerepesi",47.499565999999994,19.084432999999997
1531,"Budapest Népliget",47.475034,19.098819
1532,"Budapest Népliget M",47.476276,19.10017700000003
1533,"Budapest Orange Ways",47.47571,19.09719100000007
1534,"Budva Hotel Slovenska Plaza",42.2872685,18.842136100000058
1535,"Budva ZOB",42.291033500000005,18.83891340000002
1536,"Bugojno",44.0534854,17.44612949999998
1537,"Bugojno ZOB",44.055828000000005,17.445573999999972
1538,"Buje",45.407316,13.661245
1539,"Bukarest Filaret",44.414617299999996,26.09201729999995
1540,"Bukarest OMV Iuliu Maniu",44.435601399999996,25.974689600000033
1541,"Bukarest Timpuri Noi",44.4161749,26.11328879999996
1542,"Bük Hotel Piroska",47.3756953,16.76356499999997
1543,"Bungary",52.456626899999996,1.43525560000001
1544,"Burgas Central Bus Station West",42.5030647,27.458130200000035
1545,"Burgas Lukoil petrol station",42.537873499999996,27.4745468
1546,"Burnham-on-Sea",51.234213700000005,-2.99821040000006
1547,"Burnley Central Coach Station",53.788771700000005,-2.23971900000004
1548,"Burraton Cross",50.4132725,-4.229696699999979
1549,"Burton upon Trent",52.801449,-1.6349013000000199
1550,"Bury St Edmunds Coach Station",52.2484451,0.7114142000000401
1551,"Busbahnhof Lampugnano",45.489717999999996,9.127609
1552,"Busovača",44.09869820000001,17.880445900000037
1553,"Bütow",54.17134670000001,17.48759040000005
1554,"Buxton",53.2563421,-1.91403549999995
1555,"Buzău Customs",45.1708789,26.81531510000002
1556,"Byala Tornado Dil Tankstelle",42.8778598,27.8795325
1557,"Bydgoszcz ZOB",53.1233301,18.016651599999932
1558,"Bytom Bahnhof",50.3446152,18.91296480000005
1559,"Bytom Museum",50.34901869999999,18.9265805
1560,"Bytom ZOB",50.34385770000001,18.91469600000005
1561,"Cacak ZOB",43.890453799999996,20.354787699999967
1562,"Caernarfon",53.1402254,-4.27285879999999
1563,"Cahors n°58",44.342980600000004,1.4869741999999602
1564,"Caianello",41.3066561,14.09819489999995
1565,"Cairnryan Stena Line",54.9311453,-4.983170299999981
1566,"Cakovec ZOB",46.391599,16.434534
1567,"Calais Cite Europe",50.9357617,1.8109517000000301
1568,"Calais Eurotunnel",50.9341365,1.81455800000003
1569,"Caldas Da Rainha Bombeiros",39.409819399999996,-9.13717299999996
1570,"Calella",41.6171,2.6580999999999904
1571,"Calpe Hotel Esmeralda",38.6436469,0.045687600000059995
1572,"Camarthen",51.855668200000004,-4.307938099999999
1573,"Camborne",50.21339570000001,-5.297232099999969
1574,"Cambridge City Centre",52.203287700000004,0.12938269999995
1575,"Cambridge P+R",52.213496299999996,0.08781279999994
1576,"Cambridge Trumpington",52.1730915,0.11353940000004
1577,"Cambridge Trumpington P+R",52.168412200000006,0.11040360000003999
1578,"Campagna",40.6095213,15.114961999999991
1579,"Campulung Moldovenesc",47.5274292,25.5670556
1580,"Canet de Mar",41.5868396,2.58141339999997
1581,"Canterburry Bus Station",51.2763482,1.08234800000002
1582,"Canterburry P+R",51.2633717,1.10082310000007
1583,"Caorle ZOB",45.602843,12.885207000000038
1584,"Capel Bangor",52.4044884,-3.98266650000005
1585,"Capel del Ferne",51.10145479999999,1.20976240000005
1586,"Capel St Mary",52.003546,1.05800790000001
1587,"Capljina",43.109934100000004,17.69845429999998
1588,"Capriate S.G.",45.608216999999996,9.54110000000003
1589,"Caransebes Bhf",45.4201071,22.19562289999999
1590,"Carbis Bay",50.193036299999996,-5.462767500000041
1591,"Carcassonne",43.2154584,2.3477847
1592,"Cardiff Castle Street",51.4809946,-3.18173849999994
1593,"Cardiff Gabalfa Interchange",51.503547999999995,-3.1973375999999702
1594,"Cardiff Sophia Gardens",51.484658700000004,-3.1913008999999906
1595,"Cardiff University",51.4890659,-3.17981110000005
1596,"Carlisle",54.8941184,-2.93250839999996
1597,"Carnforth",54.12754270000001,-2.7693203
1598,"Carparkplatz am Sihlquai",47.38075,8.537569
1599,"Casalecchio Garibaldi",44.47824689999999,11.277379699999981
1600,"Caserta Nord",41.075373600000006,14.303667600000038
1601,"Cassino",41.485309,13.832052
1602,"Castelo Branco Bus station",39.8184714,-7.490772699999981
1603,"Castel San Giorgio",40.7727363,14.665930600000019
1604,"Castle Douglas",54.938045900000006,-3.9336667000000003
1605,"Catanzaro Lido",38.822212,16.612541800000027
1606,"Catterick",54.377225,-1.6309
1607,"Cattolica Stazione FS",43.960502000000005,12.74454300000002
1608,"Caussade n°59",44.34267990000001,1.49284739999996
1609,"Cavez",41.49600849999999,-7.92544309999994
1610,"Cayton Bay Park Resorts",54.240632,-0.36701500000004
1611,"Cazin ZOB",44.965143,15.923639000000001
1612,"Celje",46.231845,15.26814239999999
1613,"Celorico da Beira",40.6344224,-7.39224590000003
1614,"Centrale - Parcheggio",43.7758893,11.2490827
1615,"Central station",54.5948933,-5.91644290082143
1616,"Ceprano A1",41.5440637,13.50898189999998
1617,"Cervia - Milano Marittima",44.25921659999999,12.34903780000002
1618,"Cetinje ZOB",42.39066210000001,18.9270209
1619,"Chadderton",53.54547410000001,-2.14621729999999
1620,"Chaika Hotel Detelina",43.2578249,28.0259499
1621,"Chalford",51.721621999999996,-2.15660200000002
1622,"Chalon",46.78159600000001,4.843389
1623,"Châlons-en-Champagne Gare",48.9547609,4.34858669999994
1624,"Chambery ZOB",45.571318,5.919549999999959
1625,"Chanas 12",45.314665399999996,4.811985300000059
1626,"Chapel St Leonards",53.224516,0.33634299999994
1627,"Charkiw südlicher HBF",49.9330745,36.243829499999954
1628,"Châtellerault Nord (Campanile Hotel)",46.839013,0.545475
1629,"Chaves Caserne des pompiers",41.7365051,-7.46302679999997
1630,"Chelmsford",51.73642,0.46686000000000005
1631,"Cheltenham",51.8994896,-2.07817260000002
1632,"Cheltenham Arle Court",51.8950463,-2.12650880000001
1633,"Cheltenham Charlton Kings",51.8771339,-2.05380739999998
1634,"Chemnitz Center",50.8641426,12.86677669999995
1635,"Chemnitz Hbf",50.838426500000004,12.92891209999993
1636,"Chemnitz Mitte",50.8653033,12.862231199999998
1637,"Chemnitz ZOB",50.8406,12.92707999999993
1638,"Chepstow",51.640674,-2.6777939999999503
1639,"Cheshire Oaks",53.26461699999999,-2.880582
1640,"Chessy Gare",48.8710216,2.78195529999994
1641,"Chester",53.1919964,-2.89395839999997
1642,"Chesterfield",53.2340887,-1.4285408000000601
1643,"Chester-le-Street",54.858752,-1.57490299999995
1644,"Chester Zoo",53.226372999999995,-2.88969900000006
1645,"Chiaravalle Centrale",38.6810854,16.41020700000001
1646,"Chichester",50.832001,-0.7803020000000099
1647,"Chieti (Piazzale Stazione FS)",42.356888,14.138587
1648,"Chippenham",51.4591775,-2.11790689999998
1649,"Chippenham Sainsburys",51.447872499999995,-2.14745549999998
1650,"Chișinău ZOB",47.012817999999996,28.85990519999996
1651,"Chisineu Cris",46.523187,21.5177109
1652,"Chmelnizki",49.427434999999996,27.03370100000007
1653,"Chmelnyckyj",49.427209999999995,27.03412800000001
1654,"Chojnice PKP",53.690328,17.57115299999998
1655,"Cholet (central bus station )",47.066761,-0.872033
1656,"Chorley",51.7948653,-2.6592797000000696
1657,"Chorzów Stacja",50.279090999999994,18.95256900000004
1658,"Chorzow Stacja Madeltrans",50.27361,18.95451189999994
1659,"Chorzów Theater",50.296539200000005,18.95571740000003
1660,"Chrzanów Shell",50.143963899999996,19.41802699999994
1661,"Chur Obere Au",46.857915999999996,9.506639199999999
1662,"Ciechocinek",52.880379299999994,18.788894100000004
1663,"Cieszyn",49.7499429,18.6390609
1664,"Cieszyn Graniczna",49.7652345,18.624303999999942
1665,"Cirencester",51.716731,-1.96068200000002
1666,"Citluk",43.2280211,17.696740500000033
1667,"Clacton-on-Sea",51.793702,1.15418699999998
1668,"Clausthal Zellerfeld",51.8125528,10.33322780000003
1669,"Cleethorpes",53.560621999999995,-0.03133400000002
1670,"Clevedon",51.435454299999996,-2.85189709999997
1671,"Cliftonville",51.385937,1.40875700000004
1672,"Cliftonville Eastern Esplanade",51.390935999999996,1.39675
1673,"Cluj Hbf",46.784397999999996,23.588144999999944
1674,"Cluj Napoca",46.786382,23.581360000000018
1675,"Coalville",52.7258218,-1.3746565000000102
1676,"Cockermouth",54.6612334,-3.36744699999997
1677,"Codlea",45.69694439999999,25.44388890000005
1678,"Coimbra-B",40.22335770000001,-8.4402549
1679,"Colchester",51.88717699999999,0.90100099999995
1680,"Colmar Gare SNCF",48.0737552,7.3477901
1681,"Colne",53.8567338,-2.16617740000004
1682,"Cologne central station (Public Transport via Leverkusen)",50.943174,6.958516
1683,"Colwyn Bay",53.296041,-3.7305360000000296
1684,"Como A9",45.786356700000006,9.06096350000007
1685,"Como Centro",45.783894399999994,9.06912190000003
1686,"Como Nord Camerlata",45.7849786,9.07932900000003
1687,"Coningsby",53.1077291,-0.17036229999997002
1688,"Copperhouse",50.190983,-5.411219999999959
1689,"Corby",52.488014,-0.69932500000004
1690,"Corfe Castle",50.637851500000004,-2.05630270000006
1691,"Cork Parnell Place",51.898912100000004,-8.46737759999996
1692,"Corse Staunton",51.958979299999996,-2.30460070000004
1693,"Corsham",51.434523999999996,-2.19788900000003
1694,"Cosenza A3",39.3054888,16.245057800000037
1695,"Cosham",50.8442289,-1.06935659999999
1696,"Cottbus ZOB",51.75343489999999,14.331744800000019
1697,"Coventry",52.4100104,-1.50595629999998
1698,"Covilha Tortosendo",40.2221304,-7.5045768
1699,"Cowplain",50.894146000000006,-1.01853700000004
1700,"Crewe",53.098314,-2.4430620000000496
1701,"Cricklade",51.63991979999999,-1.8471936999999299
1702,"Crikvenica ZOB",45.172498100000006,14.6922624
1703,"Cross Hands",51.7950016,-4.086606200000009
1704,"Crowden",53.4862726,-1.9014270000000102
1705,"Crowlas",50.1480785,-5.47482190000005
1706,"Crowne Plaza Heathrow",51.499111,-0.45441299999992996
1707,"Cullompton",50.860794,-3.3868479999999903
1708,"Cuprija ZOB",43.9340777,21.374013600000012
1709,"Czaplinek",53.558235200000006,16.23278310000001
1710,"Czechowice-Dziedzice Dworzec PKS",49.91441649999999,19.00597249999998
1711,"Czechowice-Dziedzice Lukoil",49.92840700000001,18.99125200000003
1712,"Czersk Parkplatz",53.79621299999999,17.968374900000068
1713,"Czersk PKP",53.800298,17.972293900000068
1714,"Częstochowa  BP",50.77922879999999,19.14554629999998
1715,"Czestochowa ZOB",50.805831299999994,19.119900400000013
1716,"Człuchów PKS",53.66878209999999,17.36075099999994
1717,"Dakovo ZOB",45.3065144,18.41736590000005
1718,"Darlington",54.523657299999996,-1.55408469999998
1719,"Darmstadt Hbf Poststr.",49.873286,8.631069
1720,"Darmstadt Hbf Zweifalltorweg",49.870870000000004,8.628387
1721,"Dartford Bluewater Shopping Centre",51.4380519,0.27544820000003
1722,"Darwen",53.695477000000004,-2.46719099999996
1723,"Dawlish",50.580090500000004,-3.4660708999999796
1724,"Deal",51.222136,1.40342099999998
1725,"Debica Bhf",50.05399689999999,21.40538530000003
1726,"Deggendorf Bhf",48.839321000000005,12.950188
1727,"Dej Bhf",47.1185917,23.89347959999998
1728,"Den Haag Busstation",52.068764,4.32223
1729,"Den Haag CS - Busplatform",52.0814345,4.32225570000003
1730,"Denia",38.8379129,0.09046710000007
1731,"Derby",52.9220287,-1.47120129999996
1732,"Dereham",52.68192220000001,0.9405100000000199
1733,"Derventa ZOB",44.9779079,17.906594799999986
1734,"Desenzano del Garda",45.4690315,10.54212619999998
1735,"Desenzano Del Garda A4",45.4408386,10.515852200000039
1736,"Despotovac AS",44.0960825,21.44171040000003
1737,"Dessau ZOB",51.83969339999999,12.23532709999995
1738,"Deva Bhf",45.883532,22.91008499999998
1739,"Devizes",51.354172,-1.9958580000000001
1740,"Dewsbury",53.689834,-1.63174800000002
1741,"Dierhagen Strand",54.290420999999995,12.335109
1742,"Dijon Hbf",47.3236042,5.0280807000000305
1743,"Dimitrovgrad",42.0571408,25.58631409999998
1744,"Disneyland Hotel Cheyenne",48.874249,2.792092
1745,"Disneyland Hotel Disneyland",48.870177000000005,2.7798830000000003
1746,"Disneyland Hotel Newport Bay",48.865421000000005,2.7896009999999998
1747,"Disneyland Hotel New York",48.870911,2.787734
1748,"Disneyland Hotel Santa Fe",48.873212,2.79434
1749,"Disneyland Hotel Sequoia Lodge",48.868603,2.789893
1750,"Diss",52.37381,1.10655999999995
1751,"Distington",54.59728399999999,-3.5390660000000502
1752,"Djakovo",45.306643,18.416458
1753,"Djurdjevac",46.030999,17.065426000000002
1754,"Dnipropetrowsk Busbahnhof",48.474655,35.009893000000034
1755,"Dnipropetrowsk ZOB",48.464717,35.04618299999993
1756,"Doboj",44.730031,18.08757160000005
1757,"Dobrich Rayko Tsonchev",43.565178100000004,27.830046199999966
1758,"Dobwalls",50.457622,-4.517104000000019
1759,"Dohna Gewerbegebiet",50.94777,13.862709999999991
1760,"Dole-Choisey (Parking next to the tollgate/péage)",47.064098,5.447277
1761,"Domaradz",49.7955657,21.944296200000053
1762,"Domat / Ems",46.833912700000006,9.44768610000006
1763,"Doncaster",53.52333059999999,-1.13848910000002
1764,"Donja Livadica",44.355249,21.13836850000007
1765,"Donji Miholjac",45.76160489999999,18.16074520000007
1766,"Donji Vakuf",44.1382021,17.393202600000002
1767,"Dorchester",50.7092494,-2.4379025000000603
1768,"Dornbirn Messestr.",47.4122076,9.71313190000001
1769,"Dortmund Steinstr.",51.520140000000005,7.459491000000001
1770,"Dortmund ZOB",51.520590000000006,7.457920000000059
1771,"DoubleTree by Hilton Hotel",51.48000820000001,-0.41211309999994
1772,"Dover Ferry Port",51.126611100000005,1.32817030000001
1773,"Dover Town Centre",51.127705999999996,1.31309299999998
1774,"Drenovci Bozo",44.9194445,18.91017310000007
1775,"Dresden Aral",51.02019749999999,13.730565699999941
1776,"Dresden Bayrische Straße",51.038990000000005,13.73226
1777,"Dresden Flughafen Bussonderfahrtenstände",51.1231997,13.766515499999972
1778,"Dresden Hbf",51.038990000000005,13.73226
1779,"Dresden Riegel Platz",51.083290000000005,13.685789999999999
1780,"Driffield",54.001953,-0.43543899999997
1781,"Drvenik",43.157949,17.247030200000037
1782,"Dübendorf Sportanlage",47.4081599,8.63671769999996
1783,"Dublin Busáras Bus Station",53.34971179999999,-6.252540800000019
1784,"Dublin Port",53.35182629999999,-6.21053259999997
1785,"Dubrovnik Bushaltestelle",42.6490149,18.095265000000037
1786,"Dubrovnik ZOB",42.6632032,18.0833576
1787,"Dudley",52.5110946,-2.07914449999998
1788,"Duisburg Hbf (Bahnsteig)",51.429784999999995,6.77590299999997
1789,"Duisburg Hbf Otto-Keller-Strasse",51.42880840000001,6.777219899999981
1790,"Duisburg ZOB",51.43138,6.774699999999941
1791,"Dumfries",55.0687471,-3.6158699000000096
1792,"Dundee",56.46331729999999,-2.9659295999999795
1793,"Dungarvan",52.08982,-7.618169999999959
1794,"Durdevak",46.0307494,17.065282700000008
1795,"Durham",54.777314000000004,-1.5822090000000302
1796,"Düsseldorf Flughafen",51.290265999999995,6.789301799999981
1797,"Düsseldorf ZOB",51.2223151,6.79472580000004
1798,"Dvoriste",44.0932296,21.5049219
1799,"Dźwirzyno Hotel Akces",54.159729000000006,15.407195000000002
1800,"Eastbourne",50.76932499999999,0.28189159999999
1801,"East Grinstead",51.12406900000001,-0.07800369999995
1802,"East Midlands Airport",52.826308,-1.32703800000002
1803,"East Taphouse",50.4445164,-4.5593212
1804,"easyHotel Heathrow",51.489567,-0.43119100000001
1805,"Edinburgh Bus Station",55.955667000000005,-3.19168709999997
1806,"Edinet ZOB",48.179431,27.3099168
1807,"Ehrwald (Kirchplatz)",47.398842,10.918808
1808,"Eindhoven Central Station",51.4418198,5.48106269999994
1809,"Eindhoven Parking P1",51.4448532,5.484970299999991
1810,"Eindhoven Stationsweg",51.4419888,5.481354000000009
1811,"Eisenach Hof Eisenach",50.9759126,10.313572700000009
1812,"Eisenach Julius-Lippold-Straße",50.98537,10.31200000000001
1813,"Eisenach Uferstraße",50.978095,10.32716500000004
1814,"Elbląg PKS",54.153597700000006,19.414660200000068
1815,"Ellesmere Port",53.276335100000004,-2.9013793999999997
1816,"Emden ZOB",53.36951999999999,7.19724999999994
1817,"Emstek/Cloppenburg (Autohof)",52.811851,8.215755
1818,"Enschede Hbf",52.22201810000001,6.888925400000059
1819,"Erfurt Flughafen Erfurt - Weimar",50.974790999999996,10.96231109999997
1820,"Erfurt Intercity Hotel",50.973397999999996,11.039356
1821,"Erfurt Kurt-Schuhmacher-Str.",50.97406119999999,11.04007630000001
1822,"Erfurt ZOB",50.973088,11.037674000000038
1823,"Erlangen Bhf",49.5958014,11.002039700000068
1824,"Erstfeld",46.8362562,8.63501659999997
1825,"Eschede Wenninkgaarde",52.2224983,6.895869500000001
1826,"Essen Hauptbahnhof",51.450293,7.0151449999999995
1827,"Essen Hbf (Bahnsteig)",51.451355,7.01479300000005
1828,"Essen ZOB",51.450323,7.014689
1829,"Eutin ZOB",54.133342299999995,10.610822900000018
1830,"Evesham",52.091689,-1.94962699999996
1831,"Exeter",50.7251586,-3.47159379999994
1832,"Exeter Bus and Coach Stn",50.725724,-3.5248424000000096
1833,"Fabrizia",38.483877,16.300469000000017
1834,"Fafe bus station",41.448808,-8.1754608
1835,"Fafe Parkplatz",41.447927299999996,-8.175301799999941
1836,"Fagaras",45.843203499999994,24.970443299999943
1837,"Failsworth",53.50525099999999,-2.17226200000005
1838,"Falerna A3",39.0033683,16.13177580000001
1839,"Falmouth",50.154641,-5.072899000000009
1840,"Fano Stazione FS",43.842288,13.02497800000003
1841,"Fareham",50.85205620000001,-1.17942219999998
1842,"Farnborough Hampshire",51.2905228,-0.75438299999996
1843,"Farnham",51.214732,-0.7977869999999699
1844,"Fažana City Center",44.9271263,13.803388499999981
1845,"Felbridge",51.139734000000004,-0.03945999999996
1846,"Felixstowe",51.9666664,1.35280699999998
1847,"Felpham",50.79393880000001,-0.63917270000002
1848,"Fidenza A1",44.866279,10.061595300000018
1849,"Filey",54.20984,-0.29136600000004
1850,"Flensburg HBF",54.775259999999996,9.43618000000004
1851,"Flensburg Scandinavian Park",54.7785813,9.33547499999997
1852,"Flensburg ZOB",54.786285,9.437288
1853,"Flimwell",51.055188,0.44610999999997997
1854,"Flint",53.250476,-3.1348990000000203
1855,"Florenz A1",43.720425,11.223728100000018
1856,"Florenz Autostazione SITA",43.782107,11.256346799999962
1857,"Florenz Bisenzio",43.835413200000005,11.15989009999998
1858,"Florenz Busbahnhof",43.775865,11.246521000000001
1859,"Florenz Piazzale Montelungo",43.78066079999999,11.246613000000028
1860,"Flüelen Bhf",46.901554499999996,8.624204999999959
1861,"Flughafen Berlin",52.55737385,13.2805095220741
1862,"Flughafen Lissabon Terminal Chegadas",38.7701857,-9.12765690000003
1863,"Flums Bhf",47.09624470000001,9.34790299999997
1864,"Focsani Mol",45.679768700000004,27.17971799999998
1865,"Folkestone Eurotunnel",51.09118549999999,1.1243239999999999
1866,"Folkingham",52.889790000000005,-0.40757199999995997
1867,"Folkstone Motorway Service Area",51.095457700000004,1.04960149999999
1868,"Ford Shropshire",52.7131274,-2.86681950000002
1869,"Forest Row",51.09766070000001,0.033636099999970005
1870,"Forlì Bahnhof",44.22365,12.054669999999991
1871,"Fornos de Algodres",40.619977500000005,-7.535908900000001
1872,"Frankfurt Flughafen T1",50.0260725,8.58998329999997
1873,"Frankfurt Flughafen T2",50.052591,8.588401
1874,"Frankfurt Main Hbf (Hauptausgang)",50.106833,8.664417
1875,"Frankfurt Main Hbf (Pforzheimer Str.)",50.104217999999996,8.662466099999959
1876,"Frankfurt Main Hbf (Stuttgarter Str.)",50.1042555,8.66193680000004
1877,"Frankfurt Main Hbf (Südseite)",50.102362,8.655462
1878,"Franzensbad",50.12056399999999,12.348310500000029
1879,"Frascineto A3",39.832055600000004,16.25539690000005
1880,"Frauenfeld Mätteli",47.5533535,8.89938259999997
1881,"Freckleton",53.75453599999999,-2.86773900000003
1882,"Freiburg  ZOB",47.996562100000006,7.841174400000001
1883,"Freilassing (bus station)",47.836267,12.977969
1884,"Fremington",51.0718738,-4.12297620000004
1885,"Fridaythorpe",54.019721600000004,-0.66629609999995
1886,"Frinton-on-Sea",51.83807589999999,1.2416187
1887,"Frinton-on-Sea Central Av",51.842273999999996,1.25548800000001
1888,"Frome",51.23137999999999,-2.32109600000001
1889,"Frosinone",41.63483,13.328439999999999
1890,"Froxfield",51.4108454,-1.5724424
1891,"Fügen",47.3453875,11.85286859999997
1892,"Fulda ZOB",50.553932,9.68404550000003
1893,"Fulwood",53.7842894,-2.72482119999995
1894,"Fundão Gasolina Galp",40.143488299999994,-7.498070500000041
1895,"Gacko",43.1674297,18.53567450000003
1896,"Galgate",53.99286120000001,-2.7888289999999603
1897,"Gare de Guillemins",50.623994,5.568697
1898,"Gare du Nord",48.8815693,2.3543567
1899,"Gare Int. de Paris Gallieni",48.865595,2.414658
1900,"Gatwick Airport London North Terminal",51.1615886,-1.76656779999996
1901,"Gatwick Airport London South Terminal",51.1578552,-0.1601412
1902,"Gdansk Airport",54.38083659999999,18.46843319999994
1903,"Gdansk PKP",54.355332700000005,18.64447829999995
1904,"Gdańsk PKS",54.356381000000006,18.642682999999998
1905,"Gdynia PKS",54.5213044,18.5297726
1906,"Gelsenkirchen ZOB",51.5058784,7.101544699999981
1907,"Genf Gare Routiere",46.208290000000005,6.1466837000000405
1908,"Genk Hbf",50.9662987,5.496146400000041
1909,"Gent Dampoort",51.056375300000006,3.7395702000000006
1910,"Genua Marittima",44.4149768,8.91962990000002
1911,"Genua Piazza della Vittoria",44.403335999999996,8.9444456
1912,"Gera Hbf",50.882870000000004,12.07755999999995
1913,"Gera McDonalds",50.9084509,12.061410900000059
